name;Owner;normal_prod;capacity;aggregates;turbine_type;station;height;Vattenf;mean_runoff;magasin;river;location;community;region;Lat;Long
Stornorrfors;Vattenfall Umeälven AB;2256073;599400;5;Francis;Underjordsanläggning;75;1045;440;;Umeälven;Umeå;Umeå kommun;Västerbottens län;63.85361;20.04945
Harsprånget;Vattenfall Vattenkraft AB;2131000;977000;5;Francis;Underjordsanläggning;107;1119;275;6;Luleälven;Porjus;Jokkmokks kommun;Norrbottens län;66.88498;19.82726
Letsi;Vattenfall Vattenkraft AB;1857388;456000;3;Francis;Underjordsanläggning;135;369;181;67;Luleälven;Vuollerim;Jokkmokks kommun;Norrbottens län;66.50416;20.38157
Messaure;Vattenfall Vattenkraft AB;1851441;446100;3;Francis;Underjordsanläggning;87;615;278;53;Luleälven;Vuollerim;Jokkmokks kommun;Norrbottens län;66.69241;20.34818
Ligga;Vattenfall Vattenkraft AB;1655788;326750;3;Kaplan;Underjordsanläggning;40;1087;277;6;Luleälven;Porjus;Jokkmokks kommun;Norrbottens län;66.81001;19.89609
Krångede;Fortum Generation AB;1622400;248400;6;Francis;Underjordsanläggning;60;500;383;60;Indalsälven;Hammarstrand;Ragunda kommun;Jämtlands län;63.14625;16.07399
Trollhättan (Olidan & Hojum);Vattenfall Vattenkraft AB;1260000;249000;16;13 Francis, 3 Kaplan;Ovanjordsanläggning;32;1040;540;;Göta älv;Trollhättan;Trollhättans kommun;Västra Götalands län;58.27528;12.27260
Porjus;Vattenfall Vattenkraft AB;1234316;480600;2;Francis;Underjordsanläggning;60;930;274;610;Luleälven;Porjus;Jokkmokks kommun;Norrbottens län;66.95849;19.80478
Porsi;Vattenfall Vattenkraft AB;1147886;274000;3;2 Kaplan, 1 Propellerturbin;Ovanjordsanläggning;33;950;460;;Luleälven;Vuollerim;Jokkmokks kommun;Norrbottens län;66.42881;20.65313
Vietas;Vattenfall Vattenkraft AB;1123970;306000;2;Francis;Ovanjordsanläggning;83;530;234;7260;Luleälven;Stora Sjöfallet;Gällivare kommun;Norrbottens län;67.48893;18.35150
Lasele;Vattenfall Ångermanälven AB;1001810;149600;2;Kaplan;Underjordsanläggning;54;330;189;;Ångermanälven;Näsåker;Sollefteå kommun;Västernorrlands län;63.55558;16.82307
Hjälta;E.ON Vattenkraft Sverige AB;983000;178000;3;Francis;Underjordsanläggning;82;270;170;;Faxälven;Långsele;Sollefteå kommun;Västernorrlands län;63.18379;17.09765
Kilforsen;Vattenfall Ångermanälven AB;970000;288000;3;Francis;Underjordsanläggning;99;350;131;;Fjällsjöälven;Näsåker;Sollefteå kommun;Västernorrlands län;63.54153;16.76265
Harrsele;Statkraft Sverige AB/Holmen Energi AB;950000;223000;3;Francis;Underjordsanläggning;54.5;450;237;;Umeälven;Harrsele;Vännäs kommun;Västerbottens län;64.01862;19.56166
Ramsele;E.ON Vattenkraft Sverige AB;869000;157000;3;Francis;Underjordsanläggning;79.2;240;155;;Faxälven;Nässjö;Sollefteå kommun;Västernorrlands län;63.58352;16.33112
Laxede;Vattenfall Vattenkraft AB;855000;200000;3;Kaplan;Ovanjordsanläggning;25.4;980;470;;Luleälven;Edefors;Bodens kommun;Norrbottens län;66.22394;20.86118
Stadsforsen;Vattenfall Vattenkraft AB;841288;132550;3;Kaplan;Ovanjordsanläggning;28.5;580;433;;Indalsälven;Bispgården;Ragunda kommun;Jämtlands län;62.97895;16.65777
Seitevare;Vattenfall Vattenkraft AB;787000;225000;1;Francis;Underjordsanläggning;180;135;58;1650;Luleälven;Tjåmotis;Jokkmokks kommun;Norrbottens län;66.97728;18.58330
Bergeforsen;Bergeforsens Kraft AB;735000;168000;4;Kaplan;Ovanjordsanläggning;23;840;444;;Indalsälven;Timrå;Timrås kommun;Västernorrlands län;62.52085;17.38630
Forsmo;Vattenfall AB och Statkraft Sverige AB;730000;160000;4;Kaplan;Underjordsanläggning;34;600;320;;Ångermanälven;Sollefteå;Sollefteå kommun;Västernorrlands län;63.27114;17.20023
Midskog;Vattenfall Vattenkraft AB;725000;150000;3;Kaplan;Ovanjordsanläggning;27;640;373;53;Indalsälven;Midskog;Ragunda kommun;Jämtlands län;63.23974;15.23656
Hölleforsen;Vattenfall Vattenkraft AB;720000;148000;3;Kaplan;Ovanjordsanläggning;25;720;430;;Indalsälven;Utanede;Ragunda kommun;Jämtlands län;62.95081;16.66838
Gallejaur;Vattenfall Skellefteälven AB;705000;219000;2;Francis;Underjordsanläggning;80;;;;Skellefteälven;Högberg;Norsjö kommun;Västerbottens län;65.12714;19.46665
Trängslet;Fortum Generation AB;680000;330000;3;Francis;Underjordsanläggning;142;275;65;880;Dalälven;Åsen;Älvdalens kommun;Dalarnas län;61.38124;13.72358
Moforsen;E.ON Vattenkraft Sverige AB;641000;135000;3;Kaplan;Ovanjordsanläggning;28.1;600;320;;Ångermanälven;Resele;Sollefteå kommun;Västernorrlands län;63.36794;16.98724
Nämforsen;Vattenfall Ångermanälven AB;604151;114600;3;Kaplan;Nedgrävd anläggning;22;600;320;;Ångermanälven;Näsåker;Sollefteå kommun;Västernorrlands län;63.44011;16.88076
Akkats;Vattenfall Vattenkraft AB;591000;150000;2;Kaplan;Underjordsanläggning;46;450;176;42;Luleälven;Jokkmokk;Jokkmokks kommun;Norrbottens län;66.63151;19.81996
Bastusel;Vattenfall Skellefteälven AB;557473;120000;1;Francis;Underjordsanläggning;71;170;110.7;;Skellefteälven;Malå;Malå kommun;Västerbottens län;65.40503;18.67153
Hammarforsen;Statkraft Sverige Vattendel 3 AB;549276;79000;5;2 Francis, 3 Kaplan;Ovanjordsanläggning;19.5;485;424;;Indalsälven;Ragunda;Ragunda kommun;Jämtlands län;63.11413;16.35622
Stalon;Vattenfall Ångermanälven AB;548068;130200;1;Francis;Underjordsanläggning;199;65;38;665;Ångermanälven;Malgomaj;Vilhelminas kommun;Västerbottens län;64.94545;15.82789
Storfinnforsen;E.ON Vattenkraft Sverige AB;536000;132000;3;Francis;Underjordsanläggning;49.5;270;151;;Faxälven;Ramsele;Sollefteå kommun;Västernorrlands län;63.59839;16.12468
Höljes;Fortum Generation AB;530000;127000;2;Francis;Underjordsanläggning;88;167;94;270;Klarälven;Höljes;Torsby kommun;Värmlands län;60.95100;12.54343
Krokströmmen;Fortum Generation AB;522000;113000;3;2 Francis, 1 Kaplan;Underjordsanläggning;60;200;130;;Ljusnan;Ytterhogdal;Härjedalens kommun;Jämtlands län;62.04126;14.89985
Gammelänge;Fortum Generation AB;515000;69000;3;Kaplan;Ovanjordsanläggning;19;500;383;;Indalsälven;Hammarstrand;Ragunda kommun;Jämtlands län;63.14247;16.16082
Älvkarleby;Vattenfall Vattenkraft AB;510000;125000;6;5 Francis, 1 Kaplan;Ovanjordsanläggning;23;700;342;;Dalälven;Älvkarleby;Älvkarleby kommun;Uppsala län;60.56368;17.44205
Kvistforsen;Statkraft Sverige AB;500000;140000;2;Kaplan;Underjordsanläggning;51;;160;;Skellefteälven;Skellefteå;Skellefteå kommun;Västerbottens län;64.74468;20.86256
Bålforsen;E.ON Vattenkraft Sverige AB;495000;88000;2;Kaplan;Underjordsanläggning;31.1;305;217;;Umeälven;Lycksele;Lycksele kommun;Västerbottens län;64.65341;18.48462
Grundfors;Vattenfall Umeälven AB;492002;103500;2;Kaplan;Underjordsanläggning;35.3;330;192;;Umeälven;Storuman;Storumans kommun;Västerbottens län;64.96205;17.57875
Ritsem;Vattenfall Vattenkraft AB;491023;304000;1;Francis;Underjordsanläggning;173;240;40;600;Luleälven;Ritsem;Gällivare kommun;Norrbottens län;67.72921;17.48511
Boden;Vattenfall Vattenkraft AB;455000;78000;2;Kaplan;Ovanjordsanläggning;13;720;514;;Luleälven;Boden;Bodens kommun;Norrbottens län;65.80888;21.67136
Vargfors;Vattenfall Skellefteälven AB;452162;122100;2;1 Kaplan, 1 Francis;Underjordsanläggning;49;;;;Skellefteälven;Bjurträsk;Norsjö kommun;Västerbottens län;65.02145;19.68668
Järkvissle;Vattenfall Indalsälven AB;451369;96500;2;Kaplan;Ovanjordsanläggning;14;720;437;;Indalsälven;Järkvissle;Sundsvalls kommun;Västernorrlands län;62.79714;16.66350
Tuggen;Vattenfall AB, Holmen Energi AB;441000;110000;2;Kaplan;Ovanjordsanläggning;27.5;480;227;;Umeälven;Lycksele;Lycksele kommun;Västerbottens län;64.47282;18.87829
Långbjörn;Vattenfall Ångermanälven AB;430669;96900;2;Kaplan;Ovanjordsanläggning;34;330;181;;Ångermanälven;Näsåker;Sollefteå kommun;Västernorrlands län;63.63652;16.77613
Svarthålsforsen;Fortum Generation AB;430000;80000;3;Kaplan;Ovanjordsanläggning;15;525;430;0;Indalsälven;Bispgården;Ragunda kommun;Jämtlands län;63.02853;16.57131
Korsselbränna;Statkraft Sverige AB;428000;130000;2;Francis;Underjordsanläggning;112;120;54;291;Fjällsjöälven;Norråker;Strömsunds kommun;Jämtlands län;64.45855;15.54007
Järnvägsforsen;Statkraft Sverige AB;420000;100000;2;Francis;Underjordsanläggning;86.8;145;68;192;Ljungan;Alby;Ånge kommun;Västernorrlands län;62.48846;15.55735
Järpströmmen;Fortum Generation AB;415000;114000;3;Francis;Underjordsanläggning;66;220;88;502;Indalsälven;Järpbyn;Åre kommun;Jämtlands län;63.39022;13.38425
Umluspen;Vattenfall Vattenkraft AB;401000;94000;2;Kaplan;Underjordsanläggning;35;340;180;1100;Umeälven;Storuman;Storumans kommun;Västerbottens län;65.09453;17.09968
Långå;Fortum Generation AB;400000;156000;2;Francis;Underjordsanläggning;217;110;37;784;Ljusnan;Hede;Härjedalens kommun;Jämtlands län;62.46369;13.08091
Sällsjö;Skellefteå Kraftaktiebolag;350000;160000;2;Francis;Underjordsanläggning;194;110;24;700;Indalsälven;Sällsjön;Åre kommun;Jämtlands län;63.22401;13.67617
Torpshammar;Vattenfall Vattenkraft AB;350000;110000;2;Francis;Underjordsanläggning;123;110;39;;Gimån;Torpshammar;Ånge kommun;Västernorrlands län;62.50868;16.37935
Näverede;Vattenfall Indalsälven AB;348833;75600;2;Kaplan;Ovanjordsanläggning;13;660;374;;Indalsälven;Stugun;Ragunda kommun;Jämtlands län;63.22257;15.32281
Bjurfors Nedre;Statkraft Sverige AB;348000;78000;3;Kaplan;Ovanjordsanläggning;20;450;232;;Umeälven;Bjurfors;Vindelns kommun;Västerbottens län;64.10308;19.56946
Dönje;Fortum Generation AB;340000;72000;3;Kaplan;Underjordsanläggning;33.4;240;180;;Ljusnan;Bollnäs;Bollnäs kommun;Gävleborgs län;61.39656;16.40417
Olden;Statkraft Sverige AB;340000;116000;2;Francis;Underjordsanläggning;261;65;20.3;178;Långan;Olden;Krokoms kommun;Jämtlands län;63.74985;13.54035
Hällby;E.ON Vattenkraft Sverige AB;340000;84000;1;Kaplan;Ovanjordsanläggning;29;325;169;;Ångermanälven;Gulsele;Sollefteå kommun;Västernorrlands län;63.88423;17.19474
Laforsen;Fortum Generation AB;330000;57000;3;2 Francis, 1 Kaplan;Ovanjordsanläggning;35;190;149;;Ljusnan;Laforsen;Ljusdals kommun;Gävleborgs län;61.94384;15.49787
Edsele;E.ON Vattenkraft Sverige AB;328000;60000;2;Kaplan;Underjordsanläggning;28;240;157;;Faxälven;Edsele;Sollefteå kommun;Västernorrlands län;63.40456;16.55755
Gulsele;E.ON Vattenkraft Sverige AB;327987;66200;3;Kaplan;Underjordsanläggning;29;275;172;;Ångermanälven;Gulsele;Sollefteå kommun;Västernorrlands län;63.81490;17.12370
Edensforsen;E.ON Vattenkraft Sverige AB;321557;71350;2;Kaplan;Underjordsanläggning;28;280;175;;Ångermanälven;Junsele;Sollefteå kommun;Västernorrlands län;63.68359;17.00826
Hissmofors V/VI;Jämtkraft AB;320000;68000;3;Kaplan;Ovanjordsanläggning;18;440;237;1254;Indalsälven;Hissmofors;Krokoms kommun;Jämtlands län;63.33212;14.46795
Krångfors;Skellefteå Kraftaktiebolag;320000;65000;3;2 Francis, 1 Kaplan;Ovanjordsanläggning;29.9;240;;;Skellefteälven;Boliden;Skellefteå kommun;Västerbottens län;64.75505;20.48948
Degerforsen;E.ON Vattenkraft Sverige AB;295000;63000;2;Kaplan;Ovanjordsanläggning;24;300;174;;Ångermanälven;Junsele;Sollefteå kommun;Västernorrlands län;63.74223;17.02633
Sollefteå;Sollefteåforsens AB;295000;62000;3;Kaplan;Ovanjordsanläggning;9.2;790;490;;Ångermanälven;Sollefteå;Sollefteå kommun;Västernorrlands län;63.17148;17.26396
Båtfors;Skellefteå Kraftaktiebolag;294194;72900;3;Kaplan;Ovanjordsanläggning;16.9;326;;;Skellefteälven;Boliden;Skellefteå kommun;Västerbottens län;64.83197;20.22507
Gardikfors;Vattenfall Vattenkraft AB;287000;60000;1;Kaplan;Underjordsanläggning;43;170;121;871;Umeälven;Tärnaby;Storumans kommun;Västerbottens län;65.47697;15.85652
Ajaure;Vattenfall Vattenkraft AB;280000;75000;1;Diagonalturbin/deriazturbin;Underjordsanläggning;55;170;95;209;Umeälven;Tärnaby;Storuman kommun;Västerbottens län;65.50835;15.62386
Kattstrupeforsen;Jämtkraft AB;280000;56000;3;Kaplan;Ovanjordsanläggning;18;420;238;;Indalsälven;Krokom;Krokoms kommun;Jämtlands län;63.32658;14.58160
Norränge;Fortum Generation AB och Voxnan Kraft AB;280000;50000;2;Kaplan;Underjordsanläggning;21.5;240;177;40;Ljusnan;Arbrå;Bollnäs kommun;Gävleborgs län;61.47744;16.38864
Långhag;Fortum Generation AB;275000;49000;2;Kaplan;Ovanjordsanläggning;13;480;317;117;Dalälven;Solvarbo;Säters kommun;Dalarnas län;60.39640;15.71401
Ljunga;Fortum Generation AB;270000;59000;2;Francis;Underjordsanläggning;53;145;76;;Ljungan;Ljungaverk;Ånge kommun;Västernorrlands län;62.50166;16.01839
Gejmån;Vattenfall Umeälven AB;265000;65700;1;Francis;Ovanjordsanläggning;250.5;29;13.8;9;Umeälven;Storuman;Storumans kommun;Västerbottens län;65.57209;15.18169
Selsforsen;Skellefteå Kraftaktiebolag;260000;62000;2;Kaplan;Nedgrävd anläggning;22.2;300;;;Skellefteälven;Skellefteå;Skellefteå kommun;Västerbottens län;64.74146;20.63252
Stensele;Vattenfall Umeälven AB;259704;64000;1;Kaplan;Ovanjordsanläggning;19.3;310;188;;Umeälven;Storuman;Storumans kommun;Västerbottens län;65.05475;17.23223
Trångforsen;E.ON Vattenkraft Sverige AB;258000;73000;1;Francis;Underjordsanläggning;81;115;42;20;Ljungan;Åsarna;Bergs kommun;Jämtlands län;62.60869;14.30718
Långströmmen;Fortum Generation AB;255000;52000;2;Kaplan;Underjordsanläggning;31;180;131;;Ljusnan;Ytterhogdal;Härjedalens kommun;Jämtlands län;62.11126;15.00389
Untra;Fortum Generation AB;250000;42000;5;Francis;Ovanjordsanläggning;14;420;339;;Dalälven;Mehedeby;Tierps kommun;Uppsala län;60.43903;17.33901
Ljusne Strömmar;Ljusnans Kraft AB;245000;36400;2;Kaplan;Ovanjordsanläggning;16;240;233;;Ljusnan;Ljusne;Söderhamns kommun;Gävleborgs län;61.21242;17.08181
Finnforsen;Skellefteå Kraftaktiebolag;240000;44000;2;2 st Kaplan;Ovanjordsanläggning;20.7;300;174;;Skellefteälven;Boliden;Skellefteå kommun;Västerbottens län;64.79176;20.33505
Pengfors;Vattenfall Vattenkraft AB;240000;52000;3;Kaplan;Ovanjordsanläggning;15.5;450;237;;Umeälven;Vännäs;Vännäs kommun;Västerbottens län;63.93020;19.66208
Rätan;E.ON Vattenkraft Sverige AB;238000;60000;2;Francis;Underjordsanläggning;61;125;51;;Ljungan;Rätan;Bergs kommun;Jämtlands län;62.48925;14.62541
Skedvi;Fortum Generation AB;235000;38000;2;Kaplan;Ovanjordsanläggning;11;440;320;;Dalälven;Stora Skedvi;Säters kommun;Dalarnas län;60.39440;15.84415
Stenkullafors;Vattenfall Vattenkraft AB;235000;58000;1;Kaplan;Ovanjordsanläggning;24;285;141;;Ångermanälven;Åsele;Åsele kommun;Västerbottens län;64.28757;17.24534
Bullerforsen;Fortum Generation AB;229000;47000;2;Kaplan;Ovanjordsanläggning;12.2;500;276;;Dalälven;Borlänge;Borlänge kommun;Dalarnas län;60.50910;15.43808
Randi;Vattenfall Vattenkraft AB;226680;85000;1;Kaplan;Ovanjordsanläggning;25;485;128;98;Luleälven;Klubbudden;Jokkmokks kommun;Norrbottens län;66.70907;19.53330
Lanforsen;Fortum Generation AB;215000;44000;4;Kaplan;Ovanjordsanläggning;10;620;342;;Dalälven;Älvkarleö;Älvkarleby kommun;Uppsala län;60.53081;17.41603
Forsse;E.ON Vattenkraft Sverige AB;210000;52000;2;Kaplan;Ovanjordsanläggning;20;300;166;;Faxälven;Långsele;Sollefteå kommun;Västernorrlands län;63.15432;17.02055
Lilla Edet;Vattenfall Vattenkraft AB;210000;43000;4;1 Kaplan, 1 Semikaplan, 1 Lawaczeck, 1 Rörkaplan;1 Turbin underjord, resten ovan jord;7.3;842;;;Göta älv;Lilla Edet;Lilla Edets kommun;Västra Götalands län;58.13714;12.12082
Forshuvudforsen;Fortum Generation AB;209000;44000;4;1 Francis, 3 Kaplan;Ovanjordsanläggning;10.7;500;276;;Dalälven;Borlänge;Borlänge kommun;Dalarnas län;60.53577;15.42348
Mörsil;Fortum Generation AB;205000;40000;2;Kaplan;Ovanjordsanläggning;18;320;158;;Indalsälven;Mörsil;Åre kommun;Jämtlands län;63.29700;13.68849
Stensjön;Fortum Generation AB;204000;95000;1;Francis;Underjordsanläggning;318;36;8.5;173;Hårkan;Rörvattnet;Krokoms kommun;Jämtlands län;63.97457;13.88128
Mockfjärd;Fortum Generation AB;204000;43000;2;Francis;Underjordsanläggning;27;190;122;;Dalälven;Mockfjärd;Gagnef kommun;Dalarnas län;60.48355;14.89783
Blåsjön;Blåsjön Kraft AB;201000;60000;1;Francis;Underjordsanläggning;90;80;33;490;Faxälven;Gäddede;Strömsunds kommun;Jämtlands län;64.67703;14.09442
Linnvasselv;Brännälven Kraft AB;200000;73000;2;Francis;Underjordsanläggning;108;52.5;25;560;Faxälven;Gäddede;Strömsunds kommun;Jämtlands län;64.64831;13.76117
Rengård;Skellefteå Kraftaktiebolag;200000;35000;1;Kaplan;Ovanjordsanläggning;19.3;220;;;Skellefteälven;Rengård;Norsjö kommun;Västerbottens län;64.93176;20.02204
Granfors;Skellefteå Kraftaktiebolag;195000;40000;2;Kaplan;Ovanjordsanläggning;18.6;240;;;Skellefteälven;Boliden;Skellefteå kommun;Västerbottens län;64.77948;20.41557
Höljebro gamla (G3);Fortum Generation AB;195000;39000;1;Kaplan;Ovanjordsanläggning;15;300;233;26;Ljusnan;Höljebro;Söderhamns kommun;Gävleborgs län;61.23743;17.01283
Skallböle;Statkraft Sverige AB;195000;46000;3;Kaplan;Ovanjordsanläggning;21.5;265;132;;Ljungan;Matfors;Sundsvalls kommun;Västernorrlands län;62.36402;16.96225
Bjurfors Övre;Statkraft Sverige AB;194000;42000;3;Kaplan;Ovanjordsanläggning;11.5;450;232;;Umeälven;Bjurfors;Vindelns kommun;Västerbottens län;64.15567;19.50367
Grytfors;Skellefteå Kraftaktiebolag;189000;37000;1;Kaplan;Ovanjordsanläggning;22.4;165;;;Skellefteälven;Malå;Malå kommun;Västerbottens län;65.28506;19.16870
Sikfors;Skellefteå Kraftaktiebolag;185000;40000;2;Kaplan;Ovanjordsanläggning;19.5;250;;0;Piteälven;Sikfors;Piteå kommun;Norrbottens län;65.53437;21.21328
Rusfors;Vattenfall Vattenkraft AB;184000;45000;1;Kaplan;Ovanjordsanläggning;12.3;450;216;75;Umeälven;Umgransele;Lycksele kommun;Västerbottens län;64.71402;18.25514
Stugun;Vattenfall Indalsälven AB;181000;41000;2;Kaplan;Ovanjordsanläggning;7.3;640;377;;Indalsälven;Stugun;Ragunda kommun;Jämtlands län;63.16397;15.62148
Vittjärv;Vattenfall Vattenkraft AB;175000;30000;3;Rörturbin;Ovanjordsanläggning;6;690;475;;Luleälven;Boden;Bodens kommun;Norrbottens län;65.84538;21.55406
Avesta Storfors;Fortum Generation AB;170000;24000;1;Kaplan;Ovanjordsanläggning;9.4;500;325;;Dalälven;Avesta;Avesta kommun;Dalarnas län;60.15079;16.16933
Parteboda;Fortum Generation AB;170000;35000;2;Francis;Underjordsanläggning;34;140;72;;Ljungan;Ånge;Ånge kommun;Västernorrlands län;62.51824;15.69020
Vargön;Vattenfall Vattenkraft AB;165000;34000;3;2 Kaplan, 1 Rörkaplan;Ovanjordsanläggning;5.2;1000;520;9400;Göta älv;Vargön;Vänersborgs kommun;Västra Götalands län;58.35592;12.37480
Spjutmo;Spjutmo Kraft AB;165000;35000;1;Kaplan;Ovanjordsanläggning;22;210;91;;Dalälven;Spjutmo;Mora kommun;Dalarnas län;61.08361;14.32286
Öjeforsen;Fortum Generation AB;160000;27000;1;Kaplan;Ovanjordsanläggning;16;190;143;;Ljusnan;Kårböle;Ljusdals kommun;Gävleborgs län;62.02178;15.25759
Sveg;Fortum Generation AB och Holmen Kraft AB;155000;36000;1;Kaplan;Ovanjordsanläggning;19;200;120;237;Ljusnan;Sveg;Härjedalens kommun;Jämtlands län;62.02659;14.28703
Storåströmmen;Fortum Generation AB;150000;25000;2;Kaplan;Ovanjordsanläggning;17;180;142;;Ljusnan;Ytterhogdal;Härjedalens kommun;Jämtlands län;62.07881;15.10943
Betsele;E.ON Vattenkraft Sverige AB;145000;25000;2;Kaplan;Ovanjordsanläggning;9.5;320;217;;Umeälven;Lycksele;Lycksele kommun;Västerbottens län;64.63047;18.62715
Riebnes;Skellefteå Kraftaktiebolag;142000;64000;1;Francis;Underjordsanläggning;88;;;;Skellefteälven;Ringselet;Arjeplogs kommun;Norrbottens län;66.40194;17.33068
Lövön;E.ON Vattenkraft Sverige AB;140000;36000;2;Rörturbin;Ovanjordsanläggning;14;300;142;495;Faxälven;Vågdalen;Strömsunds kommun;Jämtlands län;63.74784;15.69665
Munkfors;Fortum Generation AB;140000;33000;2;Kaplan;Ovanjordsanläggning;17;;;;Klarälven;Munkfors;Munkfors kommun;Värmlands län;59.84695;13.53928
Åsen;Fortum Generation AB;140000;24000;1;Kaplan;Nedgrävd anläggning;27;130;68;;Dalälven;Åsen;Älvdalens kommun;Dalarnas län;61.28256;13.76062
Hällforsen;E.ON Vattenkraft Sverige AB;130000;22000;2;Kaplan;Ovanjordsanläggning;7.8;320;223;;Umeälven;Lycksele;Lycksele kommun;Västerbottens län;64.58500;18.68992
Karsefors;Statkraft Sverige AB;129000;31400;2;Francis;Ovanjordsanläggning;25.6;155;;;Lagan;Laholm;Laholms kommun;Hallands län;56.49907;13.10821
Borgforsen;E.ON Vattenkraft Sverige AB;126000;26000;2;Kaplan;Ovanjordsanläggning;15.4;210;116;;Fjällsjöälven;Rossön;Strömsunds kommun;Jämtlands län;63.95485;16.37157
Avesta Lillfors;Fortum Generation AB;125000;22000;2;Rörturbin;Ovanjordsanläggning;5;500;325;;Dalälven;Avesta;Avesta kommun;Dalarnas län;60.14802;16.18649
Gråda;Fortum Generation AB;125000;24000;2;Kaplan;Ovanjordsanläggning;12;270;154;658;Dalälven;Djura;Leksands kommun;Dalarnas län;60.60390;15.01540
Granboforsen;Jämtkraft AB;120000;24000;2;Rörturbin;Ovanjordsanläggning;6;450;238;;Indalsälven;Lit;Östersunds kommun;Jämtlands län;63.30543;14.70375
Näs;Vattenfall Vattenkraft AB;120000;19000;2;Rörturbin;Ovanjordsanläggning;5;480;328;;Dalälven;Näs bruk;Avesta kommun;Dalarnas län;60.17366;16.47684
Sädva;Skellefteå Kraftaktiebolag;119000;31000;1;Francis;Underjordsanläggning;51;70;34;600;Skellefteälven;Ringselet;Arjeplogs kommun;Norrbottens län;66.42404;16.84215
Åsele;Vattenfall Vattenkraft AB;116000;27000;1;Rörturbin;Ovanjordsanläggning;11;300;157;4;Ångermanälven;Åsele;Åsele kommun;Västerbottens län;64.10091;17.29208
Junsterforsen;Holmen AB;115000;30000;1;Kaplan;Underjordsanläggning;34;120;45;160;Faxälven;Gäddede;Strömsunds kommun;Jämtlands län;64.56201;14.13417
Holmen;Holmen Kraft AB;112000;29000;1;Kaplan;Underjordsanläggning;18;;;;Motala Ström;Norrköping;Norrköpings kommun;Östergötlands län;58.58895;16.17280
Alfta;Voxnan Kraft AB;110000;32400;2;Francis;Underjordsanläggning;61.2;63;33;;Voxnan;Alfta;Ovanåkers kommun;Gävleborgs län;61.34616;16.00307
Forshult;Fortum Generation AB;110000;24000;3;Kaplan;Ovanjordsanläggning;12;;;;Klarälven;Råda;Hagfors kommun;Värmlands län;59.95631;13.52572
Kvarnsveden;Fortum Generation AB;110000;61000;2;Kaplan;Ovanjordsanläggning;14;500;276;;Dalälven;Borlänge;Borlänge kommun;Dalarnas län;60.52428;15.42507
Höljebro (G4);Fortum Generation AB;110000;24000;1;Kaplan;Ovanjordsanläggning;15;300;233;26;Ljusnan;Höljebro;Söderhamns kommun;Gävleborgs län;61.23625;17.01098
Skymnäsforsen;Fortum Generation AB;110000;15600;2;Kaplan;Ovanjordsanläggning;12;;;;Klarälven;Skymnäs;Hagfors kommun;Värmlands län;59.94487;13.53169
Bergvik;Ljusnans Kraft AB;107000;16200;2;Kaplan;Ovanjordsanläggning;8.3;240;231;50;Ljusnan;Bergvik;Söderhamns kommun;Gävleborgs län;61.25897;16.83156
Domnarvet;Fortum Generation AB;100000;22000;2;Kaplan;Ovanjordsanläggning;7;400;276;;Dalälven;Borlänge;Borlänge kommun;Dalarnas län;60.49555;15.45461
Hylte;Statkraft Sverige AB;100000;26000;2;Kaplan;Underjordsanläggning;63;;;;Nissan;Hyltebruk;Hylte kommun;Hallands län;56.97726;13.16447
Klippen;Skellefteå Kraftaktiebolag;100000;27000;1;Francis;Underjordsanläggning;65;50;23;357;Umeälven;Tärnaby;Storumans kommun;Västerbottens län;65.88915;14.99068
Ljusnefors;Ljusnans Kraft AB;100000;14500;1;Rörturbin;Ovanjordsanläggning;7.1;300;233;;Ljusnan;Ljusne;Söderhamns kommun;Gävleborgs län;61.20618;17.12108
Söderfors;Vattenfall Vattenkraft AB;100000;20000;2;Rörturbin;Ovanjordsanläggning;5;500;338;;Dalälven;Söderfors;Tierps kommun;Uppsala län;60.38195;17.24167
Tåsan;Tåsan Kraft AB;100000;40000;1;Francis;Underjordsanläggning;269;;;9;Klarälven;Sysslebäck;Torsby kommun;Värmlands län;60.76666;12.84428
Dabbsjö;Statkraft Sverige AB;97000;26000;1;Francis;Underjordsanläggning;50;74;31;337;Fjällsjöälven;Rajastrand;Dorotea kommun;Västerbottens län;64.65148;15.34205
Gullspång;Fortum Generation AB;95000;40000;2;1 Francis, 1 Kaplan;Underjordsanläggning;23;;;;Gullspångsälven;Gullspång;Gullspångs kommun;Västra Götalands län;58.98735;14.11073
Bergvattnet;Statkraft Sverige AB;93000;21000;1;Francis;Underjordsanläggning;76;34;16.7;284;Fjällsjöälven;Norråker;Strömsunds kommun;Jämtlands län;64.54270;15.27221
Matfors;Statkraft Sverige AB;93000;21000;1;Rörturbin;Ovanjordsanläggning;10.1;250;134;;Ljungan;Matfors;Sundsvalls kommun;Västernorrlands län;62.34829;17.02654
Deje;Fortum Generation AB;90000;20000;7;Francis;Ovanjordsanläggning;11;;;;Klarälven;Deje;Forshaga kommun;Värmlands län;59.60712;13.47581
Juktan;Vattenfall Vattenkraft AB;90000;26000;1;Reversibelt;Underjordsanläggning;85;50;26;575;Umeälven;Sorsele;Sorsele kommun;Västerbottens län;65.29065;17.22826
Gideå;Statkraft Sverige AB;88000;17000;2;Francis;Långaxlad ovanjordsanläggning;42;50;;;Gideälven;Husum;Örnsköldsviks kommun;Västernorrlands län;63.47266;18.99301
Byarforsen;Ljusnans Kraft AB och Fortum Generation AB;87000;16000;1;Kaplan;Ovanjordsanläggning;9.9;200;124;;Ljusnan;Sveg;Härjedalens kommun;Jämtlands län;62.04197;14.49545
Parki;Vattenfall Vattenkraft AB;85000;20000;1;Rörturbin;Ovanjordsanläggning;14;200;115;460;Luleälven;Randijaur;Jokkmokks kommun;Norrbottens län;66.74471;19.20429
Turinge;E.ON Vattenkraft Sverige AB;85000;18000;2;Kaplan;Ovanjordsanläggning;21;120;52;;Ljungan;Överturingen;Ånge kommun;Västernorrlands län;62.46074;14.84456
Halvfari;Fortum Generation AB;80000;24000;1;Kaplan;Ovanjordsanläggning;25;120;44;;Ljusnan;Hede;Härjedalens kommun;Jämtlands län;62.43420;13.44768
Skogaforsen;Fortum Generation AB;80000;15000;2;Kaplan;Ovanjordsanläggning;11;;;;Klarälven;Edebäck;Hagfors kommun;Värmlands län;60.04496;13.52661
Volgsjöfors;Statkraft Sverige AB;80000;20000;2;Rörturbin;Ovanjordsanläggning;8;280;134;;Ångermanälven;Volgsjöfors;Vilhelminas kommun;Västerbottens län;64.51956;16.74393
Malfors;Tekniska Verken i Linköping AB;79600;21000;2;Francis;Ovanjordsanläggning;28.5;105;41;;Motala Ström;Ljungsbro;Linköpings kommun;Östergötlands län;58.51519;15.49894
Björna;Statkraft Sverige AB;79000;17000;2;Francis;Ovanjordsanläggning;39;50;;;Gideälven;Björna;Örnsköldsviks kommun;Västernorrlands län;63.56375;18.59929
Viforsen;Statkraft Sverige AB;79000;10000;1;Rörturbin;Ovanjordsanläggning;7.8;165;138;;Ljungan;Kvissleby;Sundsvalls kommun;Västernorrlands län;62.30838;17.17754
Gideåbacka;Statkraft Sverige AB;77000;14000;2;Francis;Underjordsanläggning;34;50;;;Gideälven;Husum;Örnsköldsviks kommun;Västernorrlands län;63.35259;19.10447
Flåsjö;E.ON Vattenkraft Sverige AB;73000;20000;1;Francis;Underjordsanläggning;46;60;26;400;Ljungan;Börtnan;Bergs kommun;Jämtlands län;62.76375;13.72527
Gäddede;Gäddede Kraft AB;72000;22000;1;Rörturbin;Ovanjordsanläggning;15.7;175;83;625;Faxälven;Gäddede;Strömsunds kommun;Jämtlands län;64.50275;14.15086
Bågede;Holmen AB;70809;13400;1;Rörturbin;Ovanjordsanläggning;8.8;170;110;130;Faxälven;Bågede;Strömsunds kommun;Jämtlands län;64.34320;14.81418
Blyberg;Fortum Generation AB;70000;15000;1;Kaplan;Ovanjordsanläggning;11;160;87;;Dalälven;Blyberg;Älvdalens kommun;Dalarnas län;61.14694;14.14578
Kvarnfallet;Stensjöns Kraft AB;70000;17000;1;Francis;Underjordsanläggning;50;44;19.1;11;Hårkan;Rörvattnet;Krokoms kommun;Jämtlands län;63.96057;14.08309
Yngeredsfors;E.ON Vattenkraft Sverige AB;70000;18800;2;Francis;Ovanjordsanläggning;28.3;;;;Ätran;Askome;Falkenbergs kommun;Hallands län;57.03311;12.76065
Gidböle;Statkraft Sverige AB;69000;12000;2;Francis;Ovanjordsanläggning;31;50;;;Gideälven;Husum;Örnsköldsviks kommun;Västernorrlands län;63.40690;19.05412
Lottefors;Fortum Generation AB;67500;13760;5;4 Francis, 1 Kaplan;Ovanjordsanläggning;6.7;220;178;;Ljusnan;Arbrå;Bollnäs kommun;Gävleborgs län;61.42854;16.41872
Landafors;Fortum Generation AB;65000;11200;1;Rörturbin;Ovanjordsanläggning;5.5;300;224;;Ljusnan;Segersta;Bollnäs kommun;Gävleborgs län;61.27294;16.62415
Letten;Fortum Generation AB;65000;36000;2;Francis;Underjordsanläggning;191;;;;Klarälven;Sysslebäck;Torsby kommun;Värmlands län;60.74766;12.78163
Näsaforsen;Jämtkraft AB;65000;15000;1;Kaplan;Underjordsanläggning;16.2;90;76;147;Hårkan;Föllinge;Krokoms kommun;Jämtlands län;63.65161;14.67605
Nederede;Statkraft Sverige AB;65000;16000;2;Kaplan;Ovanjordsanläggning;8.2;245;123;;Ljungan;Stöde;Sundsvalls kommun;Västernorrlands län;62.41886;16.49752
Väsa;Fortum Generation AB;65000;15000;1;Kaplan;Ovanjordsanläggning;10.5;160;87;;Dalälven;Väsa;Älvdalens kommun;Dalarnas län;61.17456;14.09256
Jössefors;Fortum Generation AB och Vattenfall AB;64000;26000;1;Kaplan;Ovanjordsanläggning;25;;;;Jösseälven;Jössefors;Arvika kommun;Värmlands län;59.67552;12.47528
Traryd;Statkraft Sverige AB;64000;14400;2;Kaplan;Ovanjordsanläggning;16.1;;;;Lagan;Strömsnäsbruk;Markaryds kommun;Kronobergs län;56.58233;13.74226
Juvuln;Fortum Generation AB;62000;14000;1;Rörturbin;Ovanjordsanläggning;12;150;57;269;Indalsälven;Kallsedet;Åre kommun;Jämtlands län;63.69948;12.95508
Hoting;Statkraft Sverige AB;62000;13000;1;Rörturbin;Ovanjordsanläggning;15;175;78;23;Fjällsjöälven;Hoting;Strömsunds kommun;Jämtlands län;64.05976;16.25593
Högfors;Jämtkraft AB;60000;14000;2;;Ovanjordsanläggning;12.6;120;84;;Hårkan;Lit;Östersunds kommun;Jämtlands län;63.36857;14.88267
Röjdåforsen;Fortum Generation AB;60000;31500;1;Francis;Underjordsanläggning;192;;;;Röjdan;Röjdåfors;Torsby kommun;Värmlands län;60.29416;12.70830
Sil;E.ON Vattenkraft Sverige AB;60000;12000;1;Rörturbin;Ovanjordsanläggning;7;240;122;;Fjällsjöälven;Sundsvall;Strömsunds kommun;Jämtlands län;63.73295;16.42222
Fjällsjö;E.ON Vattenkraft Sverige AB;57100;13000;1;Rörturbin;Ovanjordsanläggning;7;240;122;;Fjällsjöälven;Fjällsjö;Strömsunds kommun;Jämtlands län;63.78361;16.43304
Nissaström;Statkraft Sverige AB;56000;11200;2;Kaplan;Ovanjordsanläggning;29;;;;Nissan;Oskarström;Halmstads kommun;Hallands län;56.84213;13.00959
Torrön;Fortum Generation AB;55000;24000;1;Rörturbin;Ovanjordsanläggning;22;165;46;1178;Indalsälven;Överäng;Åre kommun;Jämtlands län;63.77145;13.06712
Skärblacka;Tekniska Verken i Linköping AB;55000;10500;2;Fullkaplan rörturbin;Ovanjordsanläggning;9;150;78;;Motala Ström;Skärblacka;Norrköpings kommun;Östergötlands län;58.57866;15.90685
Tåsjö;Statkraft Sverige AB;54000;13000;1;Rörturbin;Ovanjordsanläggning;14;135;62;262;Fjällsjöälven;Hoting;Strömsunds kommun;Jämtlands län;64.15971;16.00473
Skogaby;Statkraft Sverige AB;52000;12500;3;Francis;Ovanjordsanläggning;12.2;130;;;Lagan;Skogaby;Laholms kommun;Hallands län;56.51946;13.18111
Ätrafors;E.ON Vattenkraft Sverige AB;52000;13000;3;Francis;Ovanjordsanläggning;23.5;;;;Ätran;Askome;Falkenbergs kommun;Hallands län;57.03404;12.66304
Lima;Fortum Generation AB;50000;13000;2;Kaplan;Ovanjordsanläggning;17;100;58;;Dalälven;Lima;Malung-Sälens kommun;Dalarnas län;60.79606;13.42477
Lindbyn;Fortum Generation AB;50000;11000;2;Kaplan;Ovanjordsanläggning;9;150;124;;Dalälven;Mockfjärd;Gagnef kommun;Dalarnas län;60.51341;14.99057
Rottnen;Fortum Generation AB;50000;17000;1;Kaplan;Underjordsanläggning;43;45;;;Rottnan;Rottneros;Sunne kommun;Värmlands län;59.79406;13.11304
Hallstahammar;Mälarenergi Vattenkraft AB;49500;15000;1;Kaplan;Underjordsanläggning;29.7;60;27;;Kolbäcksån;Hallstahammar;Hallstahammar kommun;Västmanlands län;59.62002;16.20967
Edsforsen;Fortum Generation AB;49000;9000;2;Kaplan;Ovanjordsanläggning;7;190;;;Klarälven;Edebäck;Hagfors kommun;Värmlands län;60.06537;13.52601
Bodum;E.ON Vattenkraft Sverige AB;49000;12000;1;Rörturbin;Ovanjordsanläggning;6.5;220;117;21;Fjällsjöälven;Rossön;Strömsunds kommun;Jämtlands län;63.89067;16.28335
Hummelforsen;Fortum Generation AB;45000;10700;1;Kaplan;Ovanjordsanläggning;19;64;73;;Dalälven;Vansbro;Vansbro kommun;Dalarnas län;60.45140;14.14508
Anjan;Fortum Generation AB;44000;25000;1;Francis;Underjordsanläggning;40;72;15;210;Indalsälven;Anjehem;Åre kommun;Jämtlands län;63.68061;12.80818
Majenfors;Statkraft Sverige AB;44000;10900;4;3 Francis, 1 Kaplan;Ovanjordsanläggning;10.6;124;;;Lagan;Majenfors;Markaryds kommun;Kronobergs län;56.49710;13.45490
Huskvarna;Jönköpings Energi;42000;15000;2;Francis;Underjordsanläggning;116;16;;;Huskvarnaån;Huskvarna;Jönköpings kommun;Jönköpings län;57.78684;14.28378
Eldforsen;Fortum Generation AB;41000;8500;1;Kaplan;Ovanjordsanläggning;10;100;74;;Dalälven;Eldforsen;Vansbro kommun;Dalarnas län;60.43820;14.22900
Motala;Tekniska Verken i Linköping AB;41000;12000;3;Francis;Ovanjordsanläggning;15.3;105;41;;Motala Ström;Motala;Motala kommun;Östergötlands län;58.54698;15.07126
Karåsforsen;Fortum Generation AB;40000;12500;2;Francis;Ovanjordsanläggning;22.5;;;;Svartälven;Karlskoga;Karlskoga kommun;Örebro län;59.36778;14.59216
Malgomaj;Statkraft Sverige AB;40000;10000;1;Rörturbin;Ovanjordsanläggning;9;140;74;554;Ångermanälven;Vilhelmina;Vilhelminas kommun;Västerbottens län;64.64866;16.50788
Skogsforsen;E.ON Vattenkraft Sverige AB;38100;9000;2;kaplan;Ovanjordsanläggning;14;;;;Ätran;Ätran;Falkenbergs kommun;Hallands län;57.09436;12.86852
Skåpanäs;E.ON Vattenkraft Sverige AB;36176;11000;1;Kaplan;Ovanjordsanläggning;18;;;;Ätran;Skåpanäs;Svenljunga kommun;Västra Götalands län;57.18935;12.96748
Laholm;Statkraft Sverige AB;36000;11300;1;Kaplan;Ovanjordsanläggning;8;180;;;Lagan;Laholm;Laholms kommun;Hallands län;56.51567;13.04998
Ledinge;E.ON Vattenkraft Sverige AB;36000;10000;1;Francis;Underjordsanläggning;74;20;6.9;;Ledingsån;Långsele;Sollefteå kommun;Västernorrlands län;63.13913;16.86648
Tvärforsen;Fortum Generation AB;35800;9000;1;Francis;Underjordsanläggning;90;;12;;Svågan;Brännås;Hudiksvalls kommun;Gävleborgs län;62.08396;16.22398
Knäred övre;Statkraft Sverige AB;35000;7500;3;Francis;Ovanjordsanläggning;10;109;;;Lagan;Knäred;Laholms kommun;Hallands län;56.50717;13.35109
Kymmen;Fortum Generation AB;34000;55000;1;Francis;Underjordsanläggning, pumpkraftverk;88;77;;;Rottnan;Gräsmark;Sunne kommun;Värmlands län;59.92696;12.89611
Åtorp;Fortum Generation AB;34000;10000;2;Kaplan;Ovanjordsanläggning;11;;;;Gullspångsälven;Åtorp;Degerfors kommun;Örebro län;59.09663;14.33979
Bällforsen;E.ON Vattenkraft Sverige AB;33000;8400;2;Francis;Ovanjordsanläggning;14.7;;;;Ätran;Ullared;Falkenbergs kommun;Hallands län;57.07757;12.80848
Gävunda;Fortum Generation AB;32000;7500;1;Kaplan;Underjordsanläggning;20.5;45;26.5;0;Vanån;Gävunda;Mora kommun;Dalarnas län;60.73754;14.12350
Slagnäs;Skellefteå Kraft;32000;7000;1;Schaktturbin;Ovanjordsanläggning;5;;;;Skellefteälven;Slagnäs;Arjeplogs kommun;Norrbottens län;65.58834;18.18202
Granö;E.ON Vattenkraft Sverige AB;30200;9500;2;Kaplan;Ovanjordsanläggning;18.5;;;;Mörrumsån;Ryd;Tingsryds kommun;Kronobergs län;56.42318;14.68330
Kvarnforsen;Härjeåns Kraft AB;30200;4250;1;Kaplan;Underjordsanläggning;28;24.8;28;83.3;Härjeån;Sveg;Härjedalens kommun;Jämtlands län;61.97513;14.18284
Glava;Fortum Generation AB;30000;16000;1;Francis;Underjordsanläggning;96;;;;Glasälven;Glava;Arvika kommun;Värmlands län;59.53871;12.55656
Knäred nedre;Statkraft Sverige AB;30000;6600;3;Francis;Ovanjordsanläggning;9;107;;;Lagan;Knäred;Laholms kommun;Hallands län;56.51407;13.34138
Noppikoski;Fortum Generation AB;30000;10000;1;Francis;Underjordsanläggning;64;20;7.4;;Oreälven;Noppikoski;Orsa kommun;Dalarnas län;61.49653;14.90252
Leringsforsen;Vattenfall Vattenkraft AB;30000;9000;1;Kaplan;Ovanjordsanläggning;16;70;38;357;Gimån;Torpshammar;Ånge kommun;Västernorrlands län;62.57509;16.42771
Bergnäs;Skellefteå Kraft;30000;8000;1;Schaktturbin;Ovanjordsanläggning;6.2;;;;Skellefteälven;Slagnäs;Arjeplogs kommun;Norrbottens län;65.67753;18.11293
Stennäs;Statkraft Sverige AB;30000;7000;1;Kaplan;Ovanjordsanläggning;33;24;;;Gideälven;Stennäs;Bjurholms kommun;Västerbottens län;63.93422;18.43751
Älglund;Skellefteå kraft AB;30000;6500;1;Kaplan;Underjordsanläggning;30;25;;;Rickleån;Bygdsiljum;Robertsfors kommun;Västerbottens län;64.30750;20.54714
Lernbo;Västerbergslagens Kraft AB;28000;7000;2;;Ovanjordsanläggning;26;;;;Kolbäcksån;Lernbo;Ludvika kommun;Dalarnas län;60.14034;15.31500
Sillre;Vattenfall Vattenkraft AB;28000;11000;1;Francis;Ovanjordsanläggning;200;8;1.1;35.5;Indalsälven;Liden;Sundsvalls kommun;Västernorrlands län;62.77227;16.70919
Långed;Vattenfall Småskalig Kraft AB;27800;4970;6;;Ovanjordsanläggning;13.1;;;;Upperudsälven;Dals Långed;Bengtsfors kommun;Västra Götalands län;58.92714;12.29519
Bursnäs;E.ON Vattenkraft Sverige AB;27000;8000;1;Kaplan;Ovanjordsanläggning;10;125;53;;Ljungan;Överturingen;Ånge kommun;Västernorrlands län;62.43173;14.95139
Kvarnaholm;Statkraft Sverige AB;27000;5500;2;Kaplan;Ovanjordsanläggning;7;;;;Lagan;Strömsnäsbruk;Markaryds kommun;Kronobergs län;56.53845;13.71302
Anundsjö;Statkraft Sverige AB;26000;5000;1;Francis;Ovanjordsanläggning;61;10;;;Moälven;Bredbyn;Örnsköldsviks kommun;Västernorrlands län;63.48511;18.09362
Ängabäck;Statkraft Sverige AB;26000;7000;2;Kaplan;Ovanjordsanläggning;6.4;130;;;Lagan;Markaryd;Markaryds kommun;Kronobergs län;56.49487;13.50885
Genastorp;E.ON Vattenkraft Sverige AB;25000;6700;1;;Ovanjordsanläggning;16.3;;;;Helge å;Osby;Osby kommun;Skåne län;56.33748;14.00950
Vässinkoski;Fortum Generation AB;25000;10000;1;Francis;Underjordsanläggning;75;18;5;70;Oreälven;Noppikoski;Orsa kommun;Dalarnas län;61.48882;14.71371
Torsebro;E.ON Vattenkraft Sverige AB;24000;6000;1;;Ovanjordsanläggning;10.5;;;;Helge å;Torsebo;Kristianstads kommun;Skåne län;56.10546;14.13284
Tänger;Fortum Generation AB;23000;4600;1;Kaplan;Ovanjordsanläggning;35.1;15;9.2;32;Svärdsjövattendragen;Enviken;Falu kommun;Dalarnas län;60.87107;15.75089
Iggesund;Holmen AB;23000;5300;1;Kaplan;Underjordsanläggning;24.5;25;;;Iggesundsån;Iggesund;Hudiksvalls kommun;Gävleborgs län;61.63942;17.07534
Storforsen;Skellefteå Kraftaktiebolag;23000;4400;1;Kaplan;Underjordsanläggning;35;15;;;Öreälven;Långnäs;Lycksele kommun;Västerbottens län;64.24667;18.86934
Hovetorp;Tekniska Verken i Linköping AB;21500;8500;2;2 st vertikala Francisturbiner;Ovanjordsanläggning;24.5;40;12;;Stångån, Motala Ström;Sturefors;Linköpings kommun;Östergötlands län;58.30150;15.72623
Klingerforsen;Statkraft Sverige AB;20000;6000;1;Kaplan;Ovanjordsanläggning;22;30;12.9;330;Fjällsjöälven;Hoting;Strömsunds kommun;Jämtlands län;64.11719;16.03129
Hemsjö övre;E.ON Vattenkraft Sverige AB;19800;5200;4;Tvillingfrancis;Ovanjordsanläggning;15;28;;;Mörrumsån;Hemsjö;Karlshamns kommun;Blekinge län;56.32451;14.71238
Håverud;Vattenfall Småskalig Kraft AB;19500;3520;3;;Ovanjordsanläggning;10;;;;Upperudsälven;Håverud;Melleruds kommun;Västra Götalands län;58.82078;12.41189
Brynge;Statkraft Sverige AB;19000;5000;;Kaplan;Ovanjordsanläggning;37;;;;Nätraån;Bjästa;Örnsköldsviks kommun;Västernorrlands län;63.25934;18.33700
Lövhöjden;Jämtkraft AB;19000;7400;1;Francis;Ovanjordsanläggning;99;11;3;61;Foskvattsån;Ålviken;Strömsunds kommun;Jämtlands län;63.90305;14.48529
Lofsån;Härjeåns Kraft AB;19000;3500;1;Francis;Ovanjordsanläggning;47;10;6;;Lofsen;Sveg;Härjedalens kommun;Jämtlands län;62.03471;13.60190
Borensberg;Tekniska Verken i Linköping AB;18900;5500;2;Semikaplan;Ovanjordsanläggning;6.8;94;41;;Motala Ström;Borensberg;Motala kommun;Östergötlands län;58.55524;15.31407
Bassalt;Statkraft Sverige Vattendel 3 AB;18500;8000;4;Francis;Ovanjordsanläggning;10;107;;;Lagan;Bassalt;Laholms kommun;Hallands län;56.51156;13.40109
Hansjö;Fortum Generation AB;18000;3530;1;Kaplan;Ovanjordsanläggning;10.6;40;34;;Oreälven;Orsa;Orsa kommun;Dalarnas län;61.13764;14.62553
Loforsen;Västerbergslagens Kraft AB;18000;5379;1;Kaplan;Underjordsanläggning;44.5;;;;Kolbäcksån;Sunnansjö;Ludvika kommun;Dalarnas län;60.21246;14.90723
Bofors;Fortum Generation AB;17000;4200;3;;Ovanjordsanläggning;13.5;;;;Timsälven;Karlskoga;Karlskoga kommun;Örebro län;59.32839;14.54772
Maredsfors;Varberg Energimarknad AB;17000;2980;2;Francis;Ovanjordsanläggning;11;;;;Nissan;Oskarsström;Halmstads kommun;Hallands län;56.80833;12.97460
Furudal;Fortum Generation AB;16000;3580;3;1 Kaplan, 2 Rörturbin;G1 ovan jord, G2+G3 under jord;17;25;16.8;;Oreälven;Furudal;Rättviks kommun;Dalarnas län;61.18220;15.16974
Nöbbelöv;E.ON Vattenkraft Sverige AB;16000;4400;2;;Ovanjordsanläggning;10.7;;;;Helge å;Nöbbelöv;Östra Göinge kommun;Skåne län;56.23568;14.07515
Ramnäs;Mälarenergi Vattenkraft AB;16000;5200;1;Kaplan;Ovanjordsanläggning;9.7;60;25;;Kolbäcksån;Ramnäs;Surahammars kommun;Västmanlands län;59.77488;16.18673
Ålviken;Jämtkraft AB;16000;5600;1;Francis;Ovanjordsanläggning;75;11;3.1;61;Foskvattsån;Ålviken;Strömsunds kommun;Jämtlands län;63.87846;14.46447
Borgärdet;Fortum Generation AB;16000;3000;1;;Ovanjordsanläggning;;;;;Svärdsjövattendragen;Svärdsjö;Falu kommun;Dalarnas län;60.73305;15.90696
Lenninge;Fortum Generation AB;15000;2700;2;;Ovanjordsanläggning;7.4;45;38;;Voxnan;Sunnerstaholm;Bollnäs kommun;Gävleborgs län;61.31272;16.42967
Sippmikk;Sippmikk;15000;4000;1;Francis;Ovanjordsanläggning;154;3;2.3;19.5;Faxälven;Gäddede;Strömsunds kommun;Jämtlands län;64.74789;14.22135
Mackmyra;Gävle Energi AB;15000;3600;2;Kaplan;Ovanjordsanläggning;11;35;;;Gavleån;Mackmyra;Gävle kommun;Gävleborgs län;60.63551;16.97666
Fiskeby;Ljusfors kraft AB;14500;3500;5;3 st propellerturbiner samt 2 st semikaplan;Ovanjordsanläggning;2.5;175;;;Motala Ström;Norrköping;Norrköpings kommun;Östergötlands län;58.59331;16.12099
Abelvattnet;Vattenfall Vattenkraft AB;14200;4600;1;Kaplan;Ovanjordsanläggning;22;;11.5;398;Umeälven;Tärnaby;Storumans kommun;Västerbottens län;65.54585;14.98451
Högsby;E.ON Vattenkraft Sverige AB;14100;3500;2;;Ovanjordsanläggning;10.4;;;;Emån;Högsby;Högsby kommun;Kalmar län;57.16984;16.01664
Broby;E.ON Vattenkraft Sverige AB;14000;3800;2;;Ovanjordsanläggning;9;;;;Helge å;Broby;Östra Göinge kommun;Skåne län;56.26588;14.08323
Rönnöfors;Jämtkraft AB;14000;3200;1;;Ovanjordsanläggning;6.83;50;29;;Långan;Rönnöfors;Krokoms kommun;Jämtlands län;63.64640;13.83803
Ludvika;Västerbergslagens Kraft AB;13000;3600;1;;Ovanjordsanläggning;17.5;;;;Kolbäcksån;Ludvika;Ludvika kommun;Dalarnas län;60.15643;15.19124
Skeen;Statkraft Sverige AB;13000;4600;1;Kaplan;Ovanjordsanläggning;9.6;;;;Bolmån;Annerstad;Ljungby kommun;Kronobergs län;56.75931;13.67458
Timsfors;Statkraft Sverige Vattendel 3 AB;13000;2948;7;;Ovanjordsanläggning;4.8;;;;Lagan;Timsfors;Markaryds kommun;Kronobergs län;56.48653;13.60126
Vifors;Orsa besparingsskog;13000;1600;2;Tvillingfrancis;Ovanjordsanläggning;;;;;Hamrångeån;Hamrånge;Gävle kommun;Gävleborgs län;60.94065;17.02810
Unnån;Oreälvens Kraft AB;13000;3000;2;;Ovanjordsanläggning;;50;34;;Oreälven;Orsa;Orsa kommun;Dalarnas län;61.14684;14.64152
Hälleströmmen;Gävle Kraftvärme AB;13000;2200;1;Kaplan;Ovanjordsanläggning;9;35;;;Gavleån;Mackmyra;Gävle kommun;Gävleborgs län;60.63654;16.95715
Vallhaga;AB Edsbyns Elverk;12880;2520;2;Kaplan;Ovanjordsanläggning;8.1;35;27;;Voxnan;Edsbyn;Ovanåkers kommun;Gävleborgs län;61.36362;15.73006
Frötuna;Frötuna Kraftverk HB;12800;2390;3;Kaplan;Ovanjordsanläggning;6.5;40;33;;Arbogaån;Fellingsbro;Lindesbergs kommun;Örebro län;59.42798;15.56256
Fensbol;Fortum Generation AB;12500;2600;2;;Ovanjordsanläggning;;;;;Ljusnan i Torsby;Fensbol;Torsby kommun;Värmlands län;60.24386;13.02216
Öjebro;Mjölby-Svartådalen Energi AB;12500;4200;3;Dubbelfrancis;Ovanjordsanläggning;;;;;Svartån, Motala ström;Mjölby;Mjölby kommun;Östergötlands län;58.37570;15.19318
Hemsjö Nedre;Sydkraft Hydropower AB;12400;1800;1;Dubbel Tvillingfrancis;Ovanjordsanläggning;11.5;;;;Mörrumsån;Hemsjö;Karlshamns kommun;Blekinge län;56.31518;14.72469
Viskafors;Vattenfall Vattenkraft AB;12300;4000;2;Francis;Ovanjordsanläggning;25.5;24.5;;;Viskan;Viskafors;Borås kommun;Västra Götalands län;57.62714;12.84102
Torsby;Fortum Generation AB;12200;2900;2;;Ovanjordsanläggning;;;;;Röjdan;Torsby;Torsby kommun;Värmlands län;60.13242;13.00359
Fors;Statkraft Sverige AB;12000;2800;1;Rörkaplan;Ovanjordsanläggning;19;16;;;Nätraån;Bjästa;Örnsköldsviks kommun;Västernorrlands län;63.25038;18.46887
Grindberga;Mälarenergi Vattenkraft AB;12000;2200;2;Kaplan;Ovanjordsanläggning;6.5;45;36;;Arbogaån;Arboga;Arboga kommun;Västmanlands län;59.39360;15.82020
Storå;E.ON Vattenkraft Sverige AB;12000;2300;1;;Ovanjordsanläggning;17.5;;;;Storån;Storå;Lindesbergs kommun;Örebro län;59.75440;15.15782
Munkedal;Arctic Paper Munkedals AB;12000;2330;4;;Ovanjordsanläggning;;;;;Munkedalsälven;Munkedal;Munkedals kommun;Västra Götalands län;58.47962;11.69327
Drömme;Statkraft Sverige AB;12000;2000;;Francis;Ovanjordsanläggning;118;;;;Nätraån;Bjästa;Örnsköldsviks kommun;Västernorrlands län;63.24586;18.26365
Finsjö Nedre;E.ON Vattenkraft Sverige AB;11600;2100;1;;Ovanjordsanläggning;8.7;;;;Emån;Finsjö;Mönsterås kommun;Kalmar län;57.14803;16.24120
Bornforsen;AB Edsbyns Elverk;11531;2188;2;;Ovanjordsanläggning;8.1;34;27;;Voxnan;Edsbyn;Ovanåkers kommun;Gävleborgs län;61.36560;15.75398
Gammelby;Statkraft Sverige AB;11100;2000;4;2 propellerturbiner, 2 semikaplan;Ovanjordsanläggning;6;40;;;Gideälven;Hemling;Örnsköldsviks kommun;Västernorrlands län;63.67901;18.53916
Frykfors;Fortum Generation AB;11000;2400;3;Kaplan;Ovanjordsanläggning;8.3;70;;;Norsälven;Frykfors;Kils kommun;Värmlands län;59.52948;13.25291
Hornsö;E.ON Vattenkraft Sverige AB;11000;2300;1;Kaplan;Ovanjordsanläggning;15.5;;;;Alsterån;Hornsö;Högsby kommun;Kalmar län;57.00471;16.21887
Fröslida;Statkraft Sverige Vattendel 3 AB;10500;2400;2;;Ovanjordsanläggning;5.5;;;;Nissan;Torup;Hylte kommun;Hallands län;56.87088;13.04885
Prästforsen;Gävle Kraftvärme AB;10445;2900;2;Kaplan;Ovanjordsanläggning;9.5;35;;;Gavleån;Gävle;Gävle kommun;Gävleborgs län;60.66873;17.07688
Åbyfors;Gävle Kraftvärme AB;10155;2900;2;Kaplan;Ovanjordsanläggning;9.5;35;;;Gavleån;Valbo;Gävle kommun;Gävleborgs län;60.65622;17.03195
Semla;Kolbäckens Kraft KB;10100;2700;3;;Ovanjordsanläggning;10.5;;;;Kolbäcksån;Fagersta;Fagersta kommun;Västmanlands län;60.01801;15.75738
Duved;Jämtkraft AB;10000;5600;1;Francis;Ovanjordsanläggning;212;3;0.6;11;Indalsälven;Duved;Åre kommun;Jämtlands län;63.38493;12.90479
Johannisholm;Fortum Generation AB;10000;1500;1;Kaplan;Ovanjordsanläggning;7;28.5;26;137;Vanån;Mora;Mora kommun;Dalarnas län;60.83148;14.11952
Västgöthyttefors;E.ON Vattenkraft Sverige AB;10000;1800;2;;Ovanjordsanläggning;6.7;;;;Svartälven;Nora;Nora kommun;Örebro län;59.50805;14.73566
Älvås;Ljusfors kraft AB;10000;1500;3;Rörturbin;Ovanjordsanläggning;2.3;90;78;;Motala Ström;Norrköping;Norrköpings kommun;Östergötlands län;58.54617;15.95960
Odensfors;Tekniska Verken i Linköping AB;10000;2200;2;;Ovanjordsanläggning;12.5;;;;Svartån, Motala ström;Odensfors;Linköpings kommun;Östergötlands län;58.44660;15.46671
Tannefors;Tekniska Verken i Linköping AB;10000;2351;1;Full Kaplan;Ovanjordsanläggning;9.8;32;14;;Stångån, Motala Ström;Linköping;Linköpings kommun;Östergötlands län;58.40051;15.65002
Björkborn;Fortum Generation AB;9900;2500;1;Kaplan;Ovanjordsanläggning;8.1;40;;;Timsälven;Karlskoga;Karlskoga kommun;Örebro län;59.33673;14.53686
Upperud;Vattenfall Småskalig Kraft AB;9800;2800;2;;Ovanjordsanläggning;5;;;;Upperudsälven;Upperud;Melleruds kommun;Västra Götalands län;58.80928;12.43571
Järnfallet;Holmen Kraft AB;9500;1800;3;;Ovanjordsanläggning;;;;;Iggesundsån;Iggesund;Hudiksvalls kommun;Gävleborgs län;61.63899;17.07508
Österforsen;AB Edsbyns Elverk;9435;1540;2;Francis;Ovanjordsanläggning;9.7;21;27;;Voxnan;Edsbyn;Ovanåkers kommun;Gävleborgs län;61.38100;15.82621
Blankaström;E.ON Vattenkraft Sverige AB;9400;1876;2;Francis;Ovanjordsanläggning;8;;;;Emån;Blankaström;Högsby kommun;Kalmar län;57.21931;15.91662
Lennartsfors;Mälarenergi Vattenkraft AB;9200;3300;6;Francis;Ovanjordsanläggning;9;30;19;;Upperudsälven;Lennartsfors;Årjängs kommun;Värmlands län;59.31751;11.90332
Sundborn;Falu Kraft AB;9130;2190;3;Francis;Ovanjordsanläggning;7.5;36;20;280;Svärdsjövattendragen;Falun;Falu kommun;Dalarnas län;60.65106;15.77668
Bångbro;Mälarenergi Vattenkraft AB;9000;1540;1;Kaplan;Ovanjordsanläggning;31.4;5.5;4.3;;Storån;Bångbro;Ljusnarsbergs kommun;Örebro län;59.85863;15.04768
Klåvben;Olofströms Energiservice AB & E.ON Vattenkraft Sverige AB;9000;2700;1;Kaplan;Underjordsanläggning;24;14;7.8;;Ronnebyån;Klåvben;Ronneby kommun;Blekinge län;56.39536;15.23232
Hednäs;Skellefteå Kraftaktiebolag;9000;2150;1;Kaplan;Ovanjordsanläggning;15.5;16;;;Åbyälven;Blåfors;Skellefteå kommun;Västerbottens län;65.18899;20.86619
Rundbacken;E.ON Vattenkraft Sverige AB;8800;2520;3;Francis;Ovanjordsanläggning;83;;;;Ljustorpsån;Ljustorp;Timrås kommun;Västernorrlands län;62.70927;17.17341
Getterån;Härjeåns Kraft AB;8800;1360;1;;Ovanjordsanläggning;;;;;Getterån;Fränsta;Ånge kommun;Västernorrlands län;62.53968;16.10162
Flögfors;Västerbergslagens Kraft AB;8600;1600;2;;Ovanjordsanläggning;12.5;;;;Storån;Flögfors;Lindesbergs kommun;Örebro län;59.76512;15.17117
Frövifors;Mälarenergi Vattenkraft AB;8600;2300;1;Kaplan;Ovanjordsanläggning;12.2;24;14.8;;Arbogaån;Frövi;Lindesbergs kommun;Örebro län;59.48106;15.32992
Delary;E.ON Vattenkraft Sverige AB;8577;1700;1;Kaplan;Ovanjordsanläggning;13;15.8;;;Helge å;Delary;Älmhults kommun;Kronobergs län;56.54656;13.95426
Blankafors;Karlskoga Energi & Miljö AB;8500;1600;2;;Ovanjordsanläggning;;;;;Svartälven;Nora;Nora kommun;Örebro län;59.52910;14.70551
Njura;E.ON Vattenkraft Sverige AB;8500;2940;2;;Ovanjordsanläggning;5.5;;;;Helge å;Njura;Östra Göinge kommun;Skåne län;56.28372;14.06442
Hästberga;Brittedals Kraftproduktion AB;8500;1720;1;Kaplan;Ovanjordsanläggning;10;20;;;Helge å;Osby;Hässleholms kommun;Skåne län;56.38150;13.85577
Forssa Övre;Orsa besparingsskog;8500;1500;3;;Ovanjordsanläggning;;;;;Harmångersån;Forssa;Nordanstigs kommun;Gävleborgs län;61.93906;17.17647
Fridafors Nedre;Watten i Sverige AB;8500;1500;3;Kaplan;Ovanjordsanläggning;6.2;37;;;Mörrumsån;Almundsryd;Tingsryds kommun;Kronobergs län;56.39999;14.66662
Klinte;Skånska Energi;8500;3300;1;Francis;Ovanjordsanläggning;26;;;;Solgenån;Brunshult;Vetlanda kommun;Jönköpings län;57.48986;15.11122
Jonsered;Vattenfall Småskalig Kraft AB;8300;2357;4;Francis;Ovanjordsanläggning;8;;;;Säveån;Jonsered;Partille kommun;Västra Götalands län;57.74937;12.17525
Skåpafors;Vattenfall Småskalig Kraft AB;8300;2300;3;;Ovanjordsanläggning;19.8;;;;Upperudsälven;Skåpafors;Bengtsfors kommun;Västra Götalands län;59.01916;12.27745
Tollered;Vattenfall Vattenkraft AB;8170;3000;1;;Ovanjordsanläggning;60;;;;Säveån;Tollered;Lerums kommun;Västra Götalands län;57.81598;12.42696
Emsfors;E.ON Vattenkraft Sverige AB;8000;1920;2;Kaplan;Ovanjordsanläggning;5.8;;;;Helge å;Emsfors;Östra Göinge kommun;Skåne län;56.21011;14.09653
Handöl övre;Jämtkraft AB;8000;1500;1;Francis;Ovanjordsanläggning;69.3;2.4;;;Indalsälven;Östersund;Åre kommun;Jämtlands län;63.24977;12.44432
Rockesholm;Karlskoga Energi & Miljö AB;8000;1600;2;Francis;Ovanjordsanläggning;6.2;;;;Svartälven;Hällefors;Hällefors kommun;Örebro län;59.53592;14.63561
Västerkvarn;Mälarenergi Vattenkraft AB;8000;2100;3;Francis;Ovanjordsanläggning;6.6;42;28;;Kolbäcksån;Mölntorp;Hallstahammar kommun;Västmanlands län;59.54603;16.25304
Ellingeån övre;G.B. Invest AB;8000;1300;1;;Ovanjordsanläggning;19;;;;Ellingeån;Malung;Malung-Sälens kommun;Dalarnas län;60.72973;13.51642
Kvarnån;Bodens Energi AB;8000;1500;1;Francis;Ovanjordsanläggning;63;3.5;;;Kvarnån;Boden;Bodens kommun;Norrbottens län;66.06117;20.81021
Ljungby;Ljungby Energi AB;8000;1650;4;1 st Kaplan, 3 st Francis;Ovanjordsanläggning;5;;;;Lagan;Ljungby;Ljungby kommun;Kronobergs län;56.83059;13.95044
Skattungbyn;Fortum Generation AB;7800;1600;2;;Ovanjordsanläggning;;24;22;83;Oreälven;Skattungbyn;Orsa kommun;Dalarnas län;61.19950;14.86343
Oppboga;Linde Energi Försäljning AB;7711;1800;2;;Ovanjordsanläggning;;;;;Arbogaån;Lindesberg;Lindesbergs kommun;Örebro län;59.43033;15.55151
Brättne;Arvika Kraft AB;7500;1300;1;Kaplan;Ovanjordsanläggning;12.5;13;;;Jösseälven;Brättne;Arvika kommun;Värmlands län;59.74255;12.53191
Östanå;E.ON Vattenkraft Sverige AB;7500;2075;2;;Ovanjordsanläggning;6.4;;;;Helge å;Östanå;Östra Göinge kommun;Skåne län;56.30474;14.02016
Vilhelmina;Vattenfall Ångermanälven AB;7300;1500;1;Semikaplan;Ovanjordsanläggning;5.2;25;58;594;Vojmån;Vilhelmina;Vilhelminas kommun;Västerbottens län;64.61753;16.65206
Fridafors Övre;Watten i Sverige AB;7300;1200;2;Francis;Ovanjordsanläggning;;25;;;Mörrumsån;Fridafors;Tingsryds kommun;Kronobergs län;56.40624;14.66376
Högfors;E.ON Vattenkraft Sverige AB;7200;2100;1;Francis;Underjordsanläggning;91;2;;;Högforsån;Undrom;Sollefteå kommun;Västernorrlands län;63.15808;17.77061
Lafssjö;E.ON Vattenkraft Sverige AB;7100;1440;1;;Ovanjordsanläggning;24.8;7;4.2;14;Lafsan;Ramsele;Sollefteå kommun;Västernorrlands län;63.57079;16.28500
Horkoneryd;E.ON Vattenkraft Sverige AB;7000;2100;1;Francis;Ovanjordsanläggning;17;;;;Ronnebyån;Konga;Tingsryds kommun;Kronobergs län;56.43173;15.18680
Dingelvik;Dingelviks Kraft AB;7000;1200;3;;Ovanjordsanläggning;3.1;;;;Upperudsälven;Dals-Långed;Bengtsfors kommun;Västra Götalands län;58.91833;12.31172
Nyebro;Statkraft Sverige Vattendel 3 AB;7000;1400;1;;Ovanjordsanläggning;4.1;;;;Nissan;Torup;Hylte kommun;Hallands län;56.93472;13.07577
Piparån;Envikens Elkraft ek för;7000;1050;1;Kaplan;Ovanjordsanläggning;11;12;;;Svärdsjövattendragen;Enviken;Falu kommun;Dalarnas län;60.84715;15.76087
Röttle;Jönköpings Energi;7000;6000;1;Francis;Ovanjordsanläggning;108;;;;Röttleån;Gränna;Jönköpings kommun;Jönköpings län;58.01276;14.45073
Billingsfors;Vattenfall Småskalig Kraft AB;7000;1884;4;Francis;Ovanjordsanläggning;6.1;34;23.6;;Upperudsälven;Billingsfors;Bengtsfors kommun;Västra Götalands län;58.98815;12.25621
Tunafors;Strömfallet Tunafors AB;7000;1700;3;2 Francis, 1 Rörkaplan;Ovanjordsanläggning;5.3;;;;Eskilstunaån;Eskilstuna;Eskilstuna kommun;Södermanlands län;59.36300;16.51200
Hennan;Ljusdal Energi AB;7000;1474;1;Kaplan;Ovanjordsanläggning;22;;;;Väljeån;Ljusdal;Ljusdals kommun;Gävleborgs län;62.02910;15.91145
Sperlingsholm;Sperlingsholms Holding AB;7000;2920;2;Kaplan;Ovanjordsanläggning;;;;;Nissan;Halmstad;Halmstads kommun;Hallands län;56.69847;12.92568
Borgvik;Mälarenergi Vattenkraft AB;6800;2200;1;Kaplan;Ovanjordsanläggning;11;22;11.3;;Borgviksälven;Grums;Grums kommun;Värmlands län;59.35455;12.95782
Bro;Statkraft Sverige Vattendel 3 AB;6500;1450;1;Kaplan;Ovanjordsanläggning;8;;;;Lagan;Bro;Ljungby kommun;Kronobergs län;56.91812;13.99830
Jäder;Mälarenergi Vattenkraft AB;6500;1000;1;Kaplan;Ovanjordsanläggning;5;25;35.9;;Arbogaån;Arboga;Arboga kommun;Västmanlands län;59.40822;15.78358
Nykvarn;Tekniska Verken i Linköping AB;6500;1200;2;Ovanjordsanläggning;Ovanjordsanläggning;4;40;41;;Motala Ström;Ljungsbro;Linköpings kommun;Östergötlands län;58.50675;15.51905
Pappersfallet;Holmen AB;6500;1300;3;Francis;Ovanjordsanläggning;;;;;Iggesundsån;Iggesund;Hudiksvalls kommun;Gävleborgs län;61.64964;17.03806
Sliperifallet;Holmen Kraft AB;6500;1100;1;;Ovanjordsanläggning;;;;;Iggesundsån;Iggesund;Hudiksvalls kommun;Gävleborgs län;61.64081;17.06539
Harg;Nyköping Vattenkraft AB;6420;1430;2;Turbin 1 Francis, Turbin 2 Kaplan;Ovanjordsanläggning;6.3;28;24.4;;Nyköpingsån;Nyköping;Nyköpings kommun;Södermanlands län;58.77525;16.98309
Kvillsfors;Skånska Energi AB;6400;1100;1;Kaplan;Ovanjordsanläggning;14;15;13.4;0;Emån;Kvillsfors;Vetlanda kommun;Jönköpings län;57.41144;15.51104
Strömdalen;Gävle Kraftvärme AB;6388;1900;2;Kaplan;Ovanjordsanläggning;6.4;;;;Gavleån;Gävle;Gävle kommun;Gävleborgs län;60.67249;17.12352
Tolvfors;Gävle Kraftvärme AB;6053;1850;3;;Ovanjordsanläggning;6.4;;;;Gavleån;Gävle;Gävle kommun;Gävleborgs län;60.67947;17.11157
Finspång;Coor Service Management Industriservice AB;6000;1300;3;;Ovanjordsanläggning;15;;;;Finspångsån;Finspång;Finspångs kommun;Östergötlands län;58.71170;15.77426
Adolfsfors;Arvika Kraft AB;6000;1500;1;Kaplan;Ovanjordsanläggning;8.5;17;14.5;;Kölaälven;Adolfsfors;Eda kommun;Värmlands län;59.79747;12.22835
Biskopsberg;Holmia Fastigheter AB;6000;2330;3;;Ovanjordsanläggning;;;;;Lyckebyån;Karlskrona;Karlskrona kommun;Blekinge län;56.26838;15.73342
Kölsillre;Ytterhogdals Elektriska Kraft AB;6000;1000;1;;Ovanjordsanläggning;;;61;102;Ljungan;Ytterhogdal;Ånge kommun;Västernorrlands län;62.39259;15.19875
Charlottenberg;Arvika Kraft AB;6000;1450;1;Francis, dubbel;Ovanjordsanläggning;23;8;2.9;0.3;Vrångsälven;Charlottenberg;Eda kommun;Värmlands län;59.88241;12.28124
Krokfors;Bodens Energi AB;6000;1500;1;Kaplan;Ovanjordsanläggning;22;8;;;Bodträskån;Boden;Bodens kommun;Norrbottens län;66.19740;20.71438
Mjölby;Mjölby-Svartådalen Energi AB;6000;2240;4;Dubbelfrancis;Ovanjordsanläggning;8;;;;Svartån, Motala ström;Mjölby;Mjölby kommun;Östergötlands län;58.32739;15.12967
Storgysinge;Fortum Generation AB;6000;1000;2;;Ovanjordsanläggning;6.5;20;;;Dalälven;Untra;Tierps kommun;Uppsala län;60.44206;17.29081
Turefors;Skånska Energi AB;5800;1100;1;Kaplan;Ovanjordsanläggning;9.5;15;12.5;0;Emån;Kvillsfors;Vetlanda kommun;Jönköpings län;57.41045;15.49116
Ringaby;Linde Energi Försäljning AB;5737;1540;4;3 st Francis 1st Kaplan ;Ovanjordsanläggning;;;;;Arbogaån;Lindesberg;Lindesbergs kommun;Örebro län;59.42679;15.47175
Ronneby;E.ON Vattenkraft Sverige AB;5500;1500;1;Kaplan;Ovanjordsanläggning;15;;;;Ronnebyån;Ronneby;Ronneby kommun;Blekinge län;56.21283;15.27648
Skinnskatteberg;Mälarenergi Vattenkraft AB;5500;1300;2;1 Francis, 1 Semikaplan;Ovanjordsanläggning;19;9;4;;Hedströmmen;Skinnskatteberg;Skinnskattebergs kommun;Västmanlands län;59.82525;15.67981
Trilleholm;Trilleholms Kraft AB;5500;970;2;;Ovanjordsanläggning;4.8;;;;Tidan;Mariestad;Mariestads kommun;Västra Götalands län;58.66674;13.83317
Åby;Statkraft Sverige Vattendel 3 AB;5500;916;1;Francis;Ovanjordsanläggning;7.9;;;;Skålån;Åby;Ljungby kommun;Kronobergs län;56.91396;14.01207
Sjuntorp;Kalltorp Kraft HB;5500;1800;2;;Ovanjordsanläggning;;;;;Slumpån;Trollhättan;Trollhättans kommun;Västra Götalands län;58.19733;12.22170
Västanfors;Kolbäckens Kraft KB;5400;1150;1;;Ovanjordsanläggning;5.2;;;;Kolbäcksån;Västanfors;Fagersta kommun;Västmanlands län;59.98653;15.80913
Bygdsiljum;Skellefteå Kraftaktiebolag;5400;1200;1;Kaplan;Ovanjordsanläggning;7.5;22;;;Rickleån;Bygdsiljum;Skellefteå kommun;Västerbottens län;64.34957;20.50700
Koppom;Arvika Kraft AB;5400;1000;1;Kaplan;Ovanjordsanläggning;11;11;12.6;;Kölaälven;Koppom;Eda kommun;Värmlands län;59.71111;12.14777
Surahammar;Mälarenergi Vattenkraft AB;5300;1000;1;Kaplan;Ovanjordsanläggning;4.3;36;26;;Kolbäcksån;Surahammar;Surahammars kommun;Västmanlands län;59.71085;16.21148
Edeforsen;Fortum Generation AB;5200;900;2;Flygt;Ovanjordsanläggning;;;;;Ljusnan;Edeforsen;Ljusdals kommun;Gävleborgs län;61.76669;16.17055
Skogstorp;Skogstorp Kraftvek AB;5200;1200;1;Lawaczeck;Ovanjordsanläggning;5.2;;;;Eskilstunaån;Eskilstuna;Eskilstuna kommun;Södermanlands län;59.33138;16.47616
Häggårda;Borås Energi och Miljö AB;5200;1790;2;Francis;Ovanjordsanläggning;28;8;;;Häggån;Borås;Borås kommun;Västra Götalands län;57.61594;12.93879
Sälla;Arjeplogs Allmänningsskogar;5200;850;1;Francis;Ovanjordsanläggning;3;24;6.5;;Skellefteälven;Arjeplog;Arjeplogs kommun;Norrbottens län;66.06672;17.80758
Seglingsberg;Mälarenergi Vattenkraft AB;5100;1400;2;Semikaplan hävertturbin;Ovanjordsanläggning;3.2;60;25;;Kolbäcksån;Seglingsberg;Surahammars kommun;Västmanlands län;59.82231;16.14420
Forsmöllan;Skånska Energi Vattenkraft AB;5000;886;1;Kaplan;Ovanjordsanläggning;8.8;;;;Rönne å;Klippan;Klippans kommun;Skåne län;56.11741;13.16533
Nyfors;Statkraft Sverige AB;5000;1100;1;Rörkaplan;Ovanjordsanläggning;7.9;16;;;Nätraån;Långsele;Örnsköldsviks kommun;Västernorrlands län;63.25581;18.36398
Stjärnfors;Mälarenergi Vattenkraft AB;5000;1100;2;Francis;Ovanjordsanläggning;27;5.7;3.8;;Storån;Stjärnfors;Ljusnarsbergs kommun;Örebro län;59.82980;15.01330
Lofssjön;Härjeåns Kraft AB;5000;1060;1;Kaplan;Ovanjordsanläggning;12.4;10.5;5.6;81.4;Lofsen;Glöte;Härjedalens kommun;Jämtlands län;62.03825;13.49746
Djupdal;Bångbro Kraft AB;5000;800;1;2 Francis, 1 Kaplan;Ovanjordsanläggning;13;;;;Jädraån;Järbo;Sandvikens kommun;Gävleborgs län;60.71063;16.61304
Fredriksfors;Skellefteå Kraftaktiebolag;5000;870;1;Francis / Kaplan;Ovanjordsanläggning;6;21;;;Rickleån;Robertsfors;Robertsfors kommun;Västerbottens län;64.20109;20.82005
Hackefors;Tekniska Verken i Linköping AB;5000;1060;1;Full Kapln;Ovanjordsanläggning;7;;14;;Stångån, Motala Ström;Linköping;Linköpings kommun;Östergötlands län;58.38493;15.69663
Gottne;Gottne Energi AB;5000;780;1;Tvillingfrancis;Ovanjordsanläggning;17;5.5;15.8;;Moälven;Gottne;Örnsköldsviks kommun;Västernorrlands län;63.42877;18.39452
Sjunnen;Sapa Profiler AB;5000;1468;2;;Underjordsanläggning;16.2;;;;Emån;Vetlanda;Vetlanda kommun;Jönköpings län;57.43718;15.17133
Skultuna;Mälarenergi Vattenkraft AB;5000;1300;1;Kaplan;Ovanjordsanläggning;18;8;5.5;;Svartån, Västerås;Västerås;Västerås kommun;Västmanlands län;59.71856;16.41909
Slottsmöllan;Slottsmöllans Fastighets AB;5000;1200;2;Kaplan;Ovanjordsanläggning;2.7;50;;0;Nissan;Halmstad;Halmstads kommun;Hallands län;56.69021;12.87310
Tännfallet;Härjeåns Kraft AB;5000;1000;2;;Ovanjordsanläggning;38;;;;Ljusnan;Tännäs;Härjedalens kommun;Jämtlands län;62.48311;12.48993
Djupafors;E.ON Vattenkraft Sverige AB;4800;1050;1;Kaplan;Underjordsanläggning;10.7;;;;Ronnebyån;Kallinge;Ronneby kommun;Blekinge län;56.23640;15.27567
Fagersta;Kolbäckens Kraft KB;4800;1200;1;;Ovanjordsanläggning;4.4;;;;Kolbäcksån;Fagersta;Fagersta kommun;Västmanlands län;60.00487;15.78052
Kallinge;E.ON Vattenkraft Sverige AB;4800;1320;1;Kaplan;Ovanjordsanläggning;11.1;;;;Ronnebyån;Kallinge;Ronneby kommun;Blekinge län;56.24371;15.28882
Marieberg;E.ON Vattenkraft Sverige AB;4800;880;1;Francis;Ovanjordsanläggning;4.8;;;;Mörrumsån;Svängsta;Karlshamns kommun;Blekinge län;56.25273;14.77881
Agnäs;Skellefteå Kraftaktiebolag;4800;750;1;;Ovanjordsanläggning;;;;;Öreälven;Agnäs;Bjurholms kommun;Västerbottens län;63.84721;19.27627
Ljungå;Privatperson;4800;1250;1;;Ovanjordsanläggning;;;;;Ljungån;Ljungå;Bräcke kommun;Jämtlands län;62.75568;16.30937
Gisslarbo;Mälarenergi Vattenkraft AB;4700;1050;2;Francis;Ovanjordsanläggning;30;4.5;3.1;;Gunnilboån;Gisslarbo;Köpings kommun;Västmanlands län;59.62090;15.81434
Kungsfors;Vattenfall Småskalig Kraft AB;4650;1060;2;Francis, Kaplan;Ovanjordsanläggning;16;;;;Viskan;Skene;Marks kommun;Västra Götalands län;57.48631;12.67153
Smedjebacken;Smedjebacken Energi AB;4600;1380;1;Kaplan;Ovanjordsanläggning;5;;;;Kolbäcksån;Smedjebacken;Smedjebackens kommun;Dalarnas län;60.14029;15.40679
Jädraås;Bångbro Kraft AB;4600;600;1;Francis;Ovanjordsanläggning;17;;;;Jädraån;Jädraås;Ockelbo kommun;Gävleborgs län;60.83830;16.46271
Brududden;Arvika Kraft AB;4500;1500;1;Kaplan;Ovanjordsanläggning;9.5;17;;0.9;Jösseälven;Arvika;Arvika kommun;Värmlands län;59.90865;12.51752
Bäckebo;Ljusdal Energi AB;4500;900;2;;Ovanjordsanläggning;7.7;15;10.9;48.3;Sillerboån;Tallåsen;Ljusdals kommun;Gävleborgs län;61.88515;15.98350
Järpforsen;Arvika Kraft AB;4500;1200;1;Francis;Ovanjordsanläggning;48;3;;;Järperudsälven;Arvika;Arvika kommun;Värmlands län;59.87155;12.53745
Virsbo;Mälarenergi Vattenkraft AB;4500;1400;2;Semikaplan hävertturbin;Ovanjordsanläggning;3;60;24;;Kolbäcksån;Virsbo;Surahammars kommun;Västmanlands län;59.86688;16.04591
Forsså;Orsa besparingsskog;4500;840;2;;Ovanjordsanläggning;;;;;Delångersån;Forsa;Hudiksvalls kommun;Gävleborgs län;61.75365;16.87276
Krokfjorden;Olofströms Energiservice AB;4500;1490;1;;Underjordsanläggning;14;;;;Ronnebyån;Krokfjorden;Tingsryds kommun;Kronobergs län;56.46883;15.15245
Sågfallet;Holmen Kraft AB;4500;1000;1;;Ovanjordsanläggning;;;;;Iggesundsån;Iggesund;Hudiksvalls kommun;Gävleborgs län;61.64038;17.06542
Vågforsen;Mjölby-Svartådalen Energi AB;4500;1550;3;2 Dubbel-Francisturbin, 1 Semikaplan;Ovanjordsanläggning;4.2;;;;Svartån, Motala ström;Skänninge;Mjölby kommun;Östergötlands län;58.43767;15.25005
Oskarström nedre;Varberg Energimarknad AB;4400;1500;3;Francis;Ovanjordsanläggning;3.5;;;;Nissan;Oskarström;Halmstads kommun;Hallands län;56.79435;12.97033
Ringsele;Skellefteå Kraftaktiebolag;4300;850;1;;Ovanjordsanläggning;;;;;Skellefteälven;Sädva;Arjeplogs kommun;Norrbottens län;66.43968;16.83390
Roggån;Härjeåns Kraft AB;4300;680;1;;Ovanjordsanläggning;;;;;Roggån;Fränsta;Ånge kommun;Västernorrlands län;62.48102;16.21767
Solveden;Vattenfall Småskalig Kraft AB;4220;1240;2;;Ovanjordsanläggning;5;;;;Säveån;Ingared;Alingsås kommun;Västra Götalands län;57.87200;12.44470
Bengtsfors;Mälarenergi AB;4200;900;1;;Ovanjordsanläggning;3.6;;;;Upperudsälven;Bengtsfors;Bengtsfors kommun;Västra Götalands län;59.02744;12.23224
Nygårdsforsen;Mälarenergi Vattenkraft AB;4200;1200;1;Francis;Ovanjordsanläggning;12.4;13;6.8;;Hedströmmen;Gisslarbo;Köpings kommun;Västmanlands län;59.62085;15.80539
Morgårdshammar;Kolbäckens Kraft KB;4200;1050;1;Kaplan;Ovanjordsanläggning;4.6;30;;;Kolbäcksån;Morgårdshammar;Smedjebackens kommun;Dalarnas län;60.14614;15.38224
Ädelfors;Skånska Energi AB;4200;840;1;Kaplan;Ovanjordsanläggning;7.5;15;12.3;0.1;Emån;Ädelfors;Vetlanda kommun;Jönköpings län;57.41119;15.32785
Härjevad;Karlskoga Energi & Miljö AB;4200;1300;1;;Ovanjordsanläggning;;;;;Lidan;Härjevad;Lidköpings kommun;Västra Götalands län;58.36469;13.03958
Karlshammar;IR Kraft AB;4200;810;1;1 Francis, 1 Kaplan;Ovanjordsanläggning;3.6;;25;;Emån;Karlshammar;Mönsterås kommun;Kalmar län;57.15388;16.41997
Ramsjöholm;Nässjö Affärsverk AB;4200;1250;1;;Ovanjordsanläggning;;;;;Huskvarnaån;Lekeryd;Jönköpings kommun;Jönköpings län;57.84347;14.42739
Strömsbro;Nilsson Kraft AB;4200;700;1;;Ovanjordsanläggning;;;;;Testeboån;Gävle;Gävle kommun;Gävleborgs län;60.69806;17.15915
Bosgården;Vattenfall Småskalig Kraft AB;4155;1200;1;Kaplan;Ovanjordsanläggning;18;9.5;6;;Storån, Bollebygd;Rävlanda;Marks kommun;Västra Götalands län;57.60792;12.46907
Uddnäs;Kolbäckens Kraft KB;4100;1050;1;;Ovanjordsanläggning;3.6;;;;Kolbäcksån;Fagersta;Fagersta kommun;Västmanlands län;59.99697;15.78931
Ålsätra;Mälarenergi Vattenkraft AB;4100;1400;2;Semikaplan hävertturbin;Ovanjordsanläggning;2.7;60;27;;Kolbäcksån;Hallstahammar;Hallstahammar kommun;Västmanlands län;59.64709;16.20074
Blomsfors;Tekniska Verken i Linköping AB;4100;1200;1;;Ovanjordsanläggning;9;;;;Stångån, Motala Ström;Horn;Kinda kommun;Östergötlands län;57.90105;15.80579
Strömmen;Vattenfall Småskalig Kraft AB;4056;1400;1;Francis;Ovanjordsanläggning;33;4.5;2.3;;Viskan;Fönhult;Marks kommun;Västra Götalands län;57.39515;12.72885
Gustavsberg;Statkraft Sverige Vattendel 3 AB;4000;864;1;Kaplan;Ovanjordsanläggning;11.5;;;;Västerån;Torup;Hylte kommun;Hallands län;56.95649;13.09672
Hällefors;Karlskoga Energi & Miljö AB;4000;2100;1;Kaplan;Ovanjordsanläggning;7.5;;;;Svartälven;Hällefors;Hällefors kommun;Örebro län;59.78461;14.50716
Klippan;Skånska Energi Vattenkraft AB;4000;760;1;Kaplan;Ovanjordsanläggning;8.5;;;;Rönne å;Klippan;Klippans kommun;Skåne län;56.12173;13.14433
Knislinge;E.ON Vattenkraft Sverige AB;4000;730;1;;Ovanjordsanläggning;4;;;;Helge å;Knislinge;Östra Göinge kommun;Skåne län;56.19443;14.09675
Kolsva;Mälarenergi Vattenkraft AB;4000;800;1;Kaplan;Ovanjordsanläggning;7;15;10;;Hedströmmen;Kolsva;Köpings kommun;Västmanlands län;59.59796;15.83691
Sidensjö;Statkraft Sverige AB;4000;1300;1;Kaplan;Ovanjordsanläggning;16;10;;;Nätraån;Långsele;Örnsköldsviks kommun;Västernorrlands län;63.29173;18.29207
Sävenfors;Karlskoga Energi & Miljö AB;4000;1500;1;;Ovanjordsanläggning;15;;;;Svartälven;Hällefors;Hällefors kommun;Örebro län;59.88068;14.53663
Vännebo;Västerbergslagens Kraft AB;4000;700;2;Francis;Ovanjordsanläggning;45;;;;Kolbäcksån;Ludvika;Ludvika kommun;Dalarnas län;60.21248;14.74054
Slagsån;Jämtkraft AB;4000;800;1;;Ovanjordsanläggning;60;1.5;1.3;11.6;Indalsälven;Östersund;Åre kommun;Jämtlands län;63.32692;13.37008
Dalstuga;Fortum Generation AB;4000;800;1;;Ovanjordsanläggning;9.5;9.5;6.4;176;Svärdsjövattendragen;Rättvik;Rättviks kommun;Dalarnas län;61.05355;15.70300
Järnforsen;Emå-Kraft AB;4000;1200;1;Kaplan;Ovanjordsanläggning;5.6;20;15;;Emån;Järnforsen;Hultsfreds kommun;Kalmar län;57.41089;15.61911
Kungsfors;Bångbro Kraft AB;4000;1339;1;Kaplan;Ovanjordsanläggning;17;9;;;Jädraån;Sandviken;Sandvikens kommun;Gävleborgs län;60.75610;16.53064
Långgölsmåla;Olofströms Energiservice AB;4000;900;1;;Ovanjordsanläggning;11;;;;Ronnebyån;Långgölsmåla;Ronneby kommun;Blekinge län;56.35129;15.24917
Sågforsen;Skellefteå Kraftaktiebolag;4000;760;1;Francis / Kaplan;Ovanjordsanläggning;4.75;21;;;Rickleån;Robertsfors;Robertsfors kommun;Västerbottens län;64.19343;20.84155
Dalkarlshyttan;Linde Energi Försäljning AB;3930;1450;1;;Ovanjordsanläggning;5;;;;Arbogaån;Lindesberg;Lindesbergs kommun;Örebro län;59.58831;15.24059
Sälboda;Arvika Kraft AB;3900;900;3;2 x Francis, 1 x Kaplan;Ovanjordsanläggning;6.5;19.5;;7.4;Jösseälven;Arvika;Arvika kommun;Värmlands län;59.75921;12.54444
Knutshyttan;AB Borlänge Energi;3830;960;1;Francis;Ovanjordsanläggning;26.5;5.5;;;Tunaån;Borlänge;Borlänge kommun;Dalarnas län;60.38902;15.53381
Vedevåg;Linde Energi Försäljning AB;3830;930;3;;Ovanjordsanläggning;;;;;Arbogaån;Lindesberg;Lindesbergs kommun;Örebro län;59.52712;15.28579
Ekeby;Mälarenergi Vattenkraft AB;3800;800;1;Kaplan;Ovanjordsanläggning;6.5;15;10;;Hedströmmen;Köping;Västerås kommun;Västmanlands län;59.51610;15.92021
Hagby (Nora);Hagby Kraft AB;3800;1200;1;Kaplan;Ovanjordsanläggning;16.5;8.9;;;Arbogaån;Täby;Nora kommun;Örebro län;59.52102;15.02634
Värmeshult;Statkraft Sverige Vattendel 3 AB;3800;700;1;Kaplan;Ovanjordsanläggning;7;;;;Skålån;Värmeshult;Värnamo kommun;Jönköpings län;57.09757;14.25567
Stämmemad;Vattenfall Småskalig Kraft AB;3720;1016;1;Kaplan;Ovanjordsanläggning;8;;;;Viskan;Kinna;Marks kommun;Västra Götalands län;57.51946;12.67054
Gissjön;Härjeåns Kraft AB;3700;1200;2;Francis;Ovanjordsanläggning;32;;;;Getterån;Torpshammar;Ånge kommun;Västernorrlands län;62.48688;16.26634
Fossumsberg (K4);Uddevalla Kraft AB;3700;1250;1;Kaplan;Ovanjordsanläggning;20;6.8;;;Bäveån;Uddevalla;Uddevalla kommun;Västra Götalands län;58.35196;11.96380
Långö;Statkraft Sverige Vattendel 3 AB;3600;920;1;Kaplan;Underjordsanläggning;9.5;;;;Skålån;Långö;Värnamo kommun;Jönköpings län;57.27416;14.38686
Mölnbacka;Fortum Generation AB;3600;1500;1;Francis;Ovanjordsanläggning;20;50;3.15;21;Klarälven;Deje;Forshaga kommun;Värmlands län;59.63465;13.55180
Assmebro;Vattenfall Småskalig Kraft AB;3600;1000;1;Kaplan;Ovanjordsanläggning;6.9;17;9.1;;Assman;Örsås;Svenljunga kommun;Västra Götalands län;57.43561;13.13501
Fritsla;LJ Wingqvist HB;3600;850;1;;Ovanjordsanläggning;15;;;;Häggån;Fritsla;Marks kommun;Västra Götalands län;57.56457;12.78135
Ivantjärn;Bångbro Kraft AB;3600;510;1;Francis;Ovanjordsanläggning;13.5;5.6;;;Jädraån;Ockelbo;Ockelbo kommun;Gävleborgs län;60.80403;16.51377
Kvarnfallet;Strömfallet AB;3500;700;1;Francis;Ovanjordsanläggning;5.3;;;;Eskilstunaån;Täby;Eskilstuna kommun;Södermanlands län;59.42136;16.47084
Storfors;Karlskoga Energi & Miljö AB;3500;666;2;Kaplan;Ovanjordsanläggning;10;;;;Timsälven;Storfors;Storfors kommun;Värmlands län;59.53896;14.27806
Verperyd;E.ON Vattenkraft Sverige AB;3500;910;2;Tvillingfrancis;Ovanjordsanläggning;9.5;;;;Ronnebyån;Kallinge;Ronneby kommun;Blekinge län;56.28768;15.29516
Brunnshult;Skånska Energi AB;3500;1050;2;Francis;Ovanjordsanläggning;;;;;Solgenån;Brunshult;Vetlanda kommun;Jönköpings län;57.47940;15.14934
Skönnerud;Arvika Kraft AB;3500;700;1;Kaplan;Ovanjordsanläggning;6;14.5;;;Kölaälven;Skönnerud;Eda kommun;Värmlands län;59.71834;12.16246
Stalpet;Skånska Energi AB;3500;780;1;;Ovanjordsanläggning;;;;;Svartån, Motala ström;Stalpet;Aneby kommun;Jönköpings län;57.84874;14.81625
Svarteström;Tekniska Verken i Linköping AB;3500;800;2;;Ovanjordsanläggning;18;;;;Botorpsströmmen;Hjorted;Västerviks kommun;Kalmar län;57.66974;16.36406
Åmotfors;Fortum Generation AB;3500;1134;2;G1 hävert, G2 Francis;Ovanjordsanläggning;3.3;;;;Noreälven;Åmotfors;Eda kommun;Värmlands län;59.75655;12.34953
Ellingeån nedre;Ellingeåns Kraftverk;3500;500;2;;Ovanjordsanläggning;25;;;;Ellingeån;Malungsfors;Malung-Sälens kommun;Dalarnas län;60.73429;13.52546
Storhusfallet;Nyköping Vattenkraft AB;3465;735;2;Francis;Ovanjordsanläggning;5.5;20;24.4;;Nyköpingsån;Nyköping;Nyköpings kommun;Södermanlands län;58.75283;17.01455
Tyrisfors;Tekniska Verken i Linköping AB;3400;1220;1;;Ovanjordsanläggning;7.4;;;;Stångån, Motala Ström;Horn;Kinda kommun;Östergötlands län;57.90297;15.83590
Gustafsström 2;Karlskoga Energi & Miljö AB;3300;1200;1;;Ovanjordsanläggning;;;;;Svartälven;Gustafsström;Filipstads kommun;Värmlands län;60.04692;14.26266
Ivarsfors;Statkraft Sverige Vattendel 3 AB;3300;1060;1;Francis;Ovanjordsanläggning;7;;;;Skålån;Ivarsfors;Värnamo kommun;Jönköpings län;57.09096;14.32944
Bruket;Tunsjöns Kraft AB;3250;850;1;;Ovanjordsanläggning;;;;;Bruksån;Sollefteå;Sollefteå kommun;Västernorrlands län;63.16729;17.30578
Finsjö Övre;E.ON Vattenkraft Sverige AB;3200;600;1;Francis;Ovanjordsanläggning;5.5;;;;Emån;Finsjö;Mönsterås kommun;Kalmar län;57.15372;16.23094
Forsbäcken/Jokksbäcken;Tjernkraft HOG AB;3200;590;1;Kaplan;Ovanjordsanläggning;26;;;;Jokksbäcken;Tärnaby;Storumans kommun;Västerbottens län;65.65342;15.50698
Östuna;Mälarenergi Vattenkraft AB;3200;600;1;Rörturbin;Ovanjordsanläggning;4.8;15;10.4;;Hedströmmen;Köping;Köpings kommun;Västmanlands län;59.47291;15.97043
Skinnsjön;Härjeåns Kraft AB;3200;760;2;;Ovanjordsanläggning;;;;;Getterån;Fränsta;Ånge kommun;Västernorrlands län;62.58332;16.08444
Duveström;Skäppentorps Kraftverk AB;3200;700;3;Francis;Ovanjordsanläggning;7.3;;;;Alsterån;Blomstermåla;Mönsterås kommun;Kalmar län;56.98419;16.31165
Tängerströmmen;Envikens Elkraft ek för;3200;600;1;;Ovanjordsanläggning;;;;;Svärdsjövattendragen;Enviken;Falu kommun;Dalarnas län;60.86592;15.75495
Viggeby;Tekniska Verken i Linköping AB;3200;1030;1;;Ovanjordsanläggning;14.5;;;;Tvärån;Viggeby;Söderköpings kommun;Östergötlands län;58.46885;16.36886
Åbyfors;Åbyfors Kraft AB;3200;550;1;Kaplan;Ovanjordsanläggning;5;;;;Skålån;Lagan;Ljungby kommun;Kronobergs län;56.90331;14.00222
Vådån;Leksand-Rättvik Elnät AB;3200;2400;1;;Ovanjordsanläggning;140;;;;Limån;Siljansnäs;Leksands kommun;Dalarnas län;60.78042;14.61060
Skäppentorp;Skäppentorps Kraftverk AB;3200;700;1;;Ovanjordsanläggning;;;;;Alsterån;Blomstermåla;Mönsterås kommun;Kalmar län;56.95283;16.39435
Löa;Västerbergslagens Kraft AB;3100;700;1;;Ovanjordsanläggning;52.5;;;;Kölsjöån;Ludvika;Lindesbergs kommun;Örebro län;59.81790;15.16389
Bruksgården;Elhandel i Vetlanda AB ELVA;3100;650;1;;Ovanjordsanläggning;5;15;12.3;;Emån;Vetlanda;Vetlanda kommun;Jönköpings län;57.41570;15.28677
Falmarksforsen;Skellefteå Kraftaktiebolag;3100;680;1;Kaplan;Ovanjordsanläggning;5.86;15;;;Bureälven;Falmarksforsen;Skellefteå kommun;Västerbottens län;64.63510;21.06365
Uman;E.ON Vattenkraft Sverige AB;3080;850;1;Kaplan;Ovanjordsanläggning;15.31;;;;Uman;Junsele;Sollefteå kommun;Västernorrlands län;63.65409;16.99305
Gustafsström 1;Karlskoga Energi & Miljö AB;3000;1000;1;;Ovanjordsanläggning;;;;;Svartälven;Gustafsström;Filipstads kommun;Värmlands län;60.05605;14.25227
Hasselfors;Acromata AB;3000;1140;2;Francis;Ovanjordsanläggning;10;;;;Svartån;Hasselfors;Laxå kommun;Örebro län;59.09571;14.65632
Karlsfors;AB Hörle Bruk;3000;800;1;Tvillingfrancis, Kaplan;Ovanjordsanläggning;6;19;;;Lagan;Värnamo;Värnamo kommun;Jönköpings län;57.24240;14.07193
Katrinefors Bruk;Metsä Tissue AB;3000;600;1;Kaplan;Ovanjordsanläggning;4.2;;;;Tidan;Mariestad;Mariestads kommun;Västra Götalands län;58.70054;13.82945
Lagfors;E.ON Vattenkraft Sverige AB;3000;630;1;Kaplan;Ovanjordsanläggning;14;;;;Ljustorpsån;Ljustorp;Timrås kommun;Västernorrlands län;62.66123;17.19519
Närsen;Skansbackens Kraft AB;3000;900;1;;Ovanjordsanläggning;;;;;Noret;Fredriksberg;Vansbro kommun;Dalarnas län;60.28175;14.46751
Oskarström Övre;Varberg Energimarknad AB;3000;1100;1;Francis;Ovanjordsanläggning;8;;;;Nissan;Oskarström;Halmstads kommun;Hallands län;56.80567;12.97603
Räxed;Arvika Kraft AB;3000;720;1;Lawaczeck med vikelväxel;Ovanjordsanläggning;5;;;;Jösseälven;Gunnarskog;Arvika kommun;Värmlands län;59.81644;12.56096
Sörstafors;Mälarenergi Vattenkraft AB;3000;700;1;Kaplan;Ovanjordsanläggning;3.3;30;27;;Kolbäcksån;Sörstafors;Hallstahammar kommun;Västmanlands län;59.58253;16.21754
Forssa Nedre;Orsa besparingsskog;3000;740;2;;Ovanjordsanläggning;;;;;Harmångersån;Forssa;Nordanstigs kommun;Gävleborgs län;61.93675;17.19675
Gyllenfors;Gislaved EnergiRing AB;3000;883;1;;Ovanjordsanläggning;;;;;Nissan;Gislaved;Gislaveds kommun;Jönköpings län;57.29695;13.54496
OHS;Alvesta Energi AB;3000;600;1;1 propeller, 1 Kalpan, 1 Francis;Ovanjordsanläggning;5;16;;;Mörrumsån;Gemla;Växjö kommun;Kronobergs län;56.83735;14.58196
Rämninge;Rämninge Kraftverk AB;3000;700;1;Francis;Ovanjordsanläggning;;;;;Hälestadsån;Bönnern;Finspångs kommun;Östergötlands län;58.73113;15.68035
Slattefors;Tekniska Verken i Linköping AB;3000;900;1;Full Kaplan;Ovanjordsanläggning;4.5;;14;;Stångån, Motala Ström;Landeryd;Linköpings kommun;Östergötlands län;58.36207;15.73150
Våmån kraft;Våmåns Kraft AB;3000;835;1;;Ovanjordsanläggning;14;;;;Våmån;Mora;Mora kommun;Dalarnas län;61.14906;14.39415
Ödebyn;Svaneholm Energi AB;3000;600;1;Francis;Ovanjordsanläggning;29.5;;;;Lillälven-Värmland;Svanskog;Säffle kommun;Värmlands län;59.20869;12.52085
Dammfallet;Hoåns Kraft AB;2900;950;1;;Ovanjordsanläggning;15.5;;;;Hoån;Hofors;Hofors kommun;Gävleborgs län;60.56324;16.27366
Holmen;Mälarenergi Vattenkraft AB;2900;800;2;Francis;Ovanjordsanläggning;4;5.5;6.2;;Hedströmmen;Hed;Skinnskattebergs kommun;Västmanlands län;59.68934;15.75062
Norrhammar;Mälarenergi Vattenkraft AB;2900;800;2;Semikaplan;Ovanjordsanläggning;4.5;9.5;6.2;;Hedströmmen;Hed;Skinnskattebergs kommun;Västmanlands län;59.69329;15.74928
Silvergruvan;Karlskoga Energi & Miljö AB;2900;670;1;Kaplan;Ovanjordsanläggning;4;;;;Svartälven;Hällefors;Hällefors kommun;Örebro län;59.85570;14.45754
Östvalla;Malungs Elverk AB;2900;440;1;Francis;Ovanjordsanläggning;106;;;;Dalälven;Transtrand;Malung-Sälens kommun;Dalarnas län;61.10065;13.30966
Ankarsrum;Tekniska Verken i Linköping AB;2900;900;1;;Ovanjordsanläggning;10.5;;;;Botorpsströmmen;Ankarsrum;Västerviks kommun;Kalmar län;57.69808;16.32969
Botorp;Tekniska Verken i Linköping AB;2900;1336;1;Kaplan;Ovanjordsanläggning;8.5;;;;Botorpsströmmen;Hjorted;Västerviks kommun;Kalmar län;57.66189;16.46463
Genne;Tekniska Verken i Linköping AB;2900;645;2;;Ovanjordsanläggning;5;;;;Nyköpingsån;Katrineholm;Katrineholms kommun;Södermanlands län;58.98944;16.14208
Gingri;Vattenfall Småskalig Kraft AB;2900;805;1;;Ovanjordsanläggning;;;;;Viskan;Gingri;Borås kommun;Västra Götalands län;57.81459;13.04635
Fabriksfallet;Korsnäs Rockhammar AB;2900;460;1;;Ovanjordsanläggning;;;;;Sverkestaån;Frövi;Lindesbergs kommun;Örebro län;59.52905;15.44696
Tovehult;Tovehults Kraftstation;2900;1100;1;Kaplan och Francis;Ovanjordsanläggning;8.3;;;;Botorpsströmmen;Gunnebo;Västerviks kommun;Kalmar län;57.64381;16.56628
Karlslund;E.ON Vattenkraft Sverige AB;2800;630;1;Kaplan;Ovanjordsanläggning;10;;;;Svartån;Örebro;Örebro kommun;Örebro län;59.26626;15.14278
Nyby;Strömfallet AB;2800;400;1;Kaplan;Ovanjordsanläggning;6.5;;;;Eskilstunaån;Täby;Eskilstuna kommun;Södermanlands län;59.42419;16.46006
Nyhammar;Västerbergslagens Kraft AB;2800;750;1;Francis;Ovanjordsanläggning;27;3.5;;;Kolbäcksån;Ludvika;Ludvika kommun;Dalarnas län;60.27516;14.97817
Bruksfors;Skellefteå Kraftaktiebolag;2800;670;4;Kaplan;Ovanjordsanläggning;4.8;24;;;Rickleån;Robertsfors;Robertsfors kommun;Västerbottens län;64.18544;20.84897
Skälleryd;Ålem Energi Kraft AB;2800;550;2;Kaplan;Ovanjordsanläggning;6.4;12.5;;;Alsterån;Blomstermåla;Mönsterås kommun;Kalmar län;56.96631;16.34594
Blixbol;Mälarenergi Vattenkraft AB;2700;1000;2;Francis;Ovanjordsanläggning;10;13.6;5.2;;Lillälven-Värmland;Värmlands nysäter;Säffle kommun;Värmlands län;59.32256;12.73001
Skifsforsen;Fortum Generation AB;2700;500;1;;Ovanjordsanläggning;3.5;20;102;;Dalälven;Vansbro;Vansbro kommun;Dalarnas län;60.50138;14.27102
Väls;Fortum Generation AB;2700;960;1;Propeller;Ovanjordsanläggning;;;;;Röjdan;Torsby;Torsby kommun;Värmlands län;60.13866;12.95318
Brattfall (Halgå);Fortum Generation AB;2600;820;2;Francis;Ovanjordsanläggning;32;;;;Klarälven;Hagfors;Hagfors kommun;Värmlands län;60.28961;13.46660
Stackarp;Skånska Energi Vattenkraft AB;2600;680;1;Kaplan;Ovanjordsanläggning;6.2;;;;Rönne å;Klippan;Klippans kommun;Skåne län;56.12340;13.11567
Tjärnäs;Hoåns Kraft AB;2600;750;1;;Ovanjordsanläggning;20;;;;Hoån;Hofors;Hofors kommun;Gävleborgs län;60.51949;16.41097
Alstermo Nedre;AMO Energi AB;2600;435;2;;Ovanjordsanläggning;;;;;Alsterån;Alstermö;Uppvidinge kommun;Kronobergs län;56.97433;15.63969
Petiknäs;Skellefteå Kraftaktiebolag;2600;800;1;Kaplan;Ovanjordsanläggning;11.5;8;;;Petikån;Petiknäs;Norsjö kommun;Västerbottens län;64.94100;20.04300
Rots övre;Älvdalsträ AB;2600;750;1;Semikaplan;Ovanjordsanläggning;6.4;12;9;;Rotälven;Rot;Älvdalens kommun;Dalarnas län;61.24862;14.05723
Aspö;Elhandel i Vetlanda AB ELVA;2591;550;1;Kaplan;Ovanjordsanläggning;5;15;12.2;;Emån;Vetlanda;Vetlanda kommun;Jönköpings län;57.42887;15.24946
Backa 1;Gropen - Backa Kraft AB;2500;500;5;Francis;Ovanjordsanläggning;8;;;;Svartån;Fjugesta;Lekebergs kommun;Örebro län;59.15387;14.81277
Gropen;Gropen - Backa Kraft AB;2500;500;4;Francis;Ovanjordsanläggning;8;;;;Svartån;Fjugesta;Lekebergs kommun;Örebro län;59.16310;14.82487
Hammaren;Karlskoga Energi & Miljö AB;2500;500;1;Kaplan;Ovanjordsanläggning;3.2;;;;Svartälven;Hällefors;Hällefors kommun;Örebro län;59.74712;14.50150
Källafors;Bjärke Energi AB, Hjultorp Kraft AB;2500;810;2;Kaplan;Ovanjordsanläggning;6.5;;;;Säveån;Alingsås;Alingsås kommun;Västra Götalands län;57.96983;12.59213
Lillå;Jämtkraft AB;2500;500;1;;Ovanjordsanläggning;;;;;Billstaån;Hackås;Bergs kommun;Jämtlands län;62.91574;14.55268
Marnäs;Envikens Elkraft ek för;2500;600;1;Rörturbin;Ovanjordsanläggning;11;7;;;Svärdsjövattendragen;Enviken;Falu kommun;Dalarnas län;60.83400;15.66629
Rällså;Mälarenergi Vattenkraft AB;2500;850;1;Francis;Ovanjordsanläggning;12.8;8.3;4.2;;Storån;Ljusnarsberg;Ljusnarsbergs kommun;Örebro län;59.80689;15.10445
Strömbacka;Jämtkraft AB;2500;500;1;;Ovanjordsanläggning;;;;;Billstaån;Hackås;Bergs kommun;Jämtlands län;62.91357;14.52522
Tidavad;Karlskoga Energi & Miljö AB;2500;510;1;;Ovanjordsanläggning;3.7;;;;Tidan;Mariestad;Mariestads kommun;Västra Götalands län;58.59309;13.84670
Åsteby;Fortum Generation AB;2500;800;1;;Ovanjordsanläggning;;;;;Ljusnan i Torsby;Torsby;Torsby kommun;Värmlands län;60.26055;13.03032
Lyred;Arvika Kraft AB;2500;770;1;Kaplan;Ovanjordsanläggning;7;;;1.4;Jösseälven;Gunnarskog;Arvika kommun;Värmlands län;59.92459;12.48499
Kvarnströmmen;Härjeåns Kraft AB;2500;780;1;;Ovanjordsanläggning;15;;;;Ljusnan;Funäsdalen;Härjedalens kommun;Jämtlands län;62.55365;12.57127
Lemmån;ÄSI Kraft AB;2500;590;1;kaplan;Ovanjordsanläggning;30;2.5;1.9;;Lemmån;Särna;Älvdalens kommun;Dalarnas län;61.70316;13.03444
Rimojokk;Vattenfall Vattenkraft;2500;900;2;Francis;Ovanjordsanläggning;90;1.2;;;Rimobäcken;Jokkmokk;Jokkmokks kommun;Norrbottens län;66.77472;20.02930
Snarkil;Mälarenergi Vattenkraft AB;2500;550;1;Francis;Ovanjordsanläggning;20;3.6;2.3;;Upperudsälven;Snarkil;Årjängs kommun;Värmlands län;59.33075;12.26748
Spånga 1;Spånga Kraftverk HB;2500;500;2;;Ovanjordsanläggning;;;;;Almaån;Hanaskog;Östra Göinge kommun;Skåne län;56.17220;14.04632
Torp;Göteborgs Stifts Prästlönetillgångar;2500;800;1;;Ovanjordsanläggning;;;;;Örekilsälven;Munkedal;Munkedals kommun;Västra Götalands län;58.50532;11.66556
Herting;Falkenbergs Kommun;2460;3300;3;;Ovanjordsanläggning;;;;;Ätran;Falkenberg;Falkenbergs kommun;Hallands län;56.90039;12.51950
Grythyttan;Karlskoga Energi & Miljö AB;2400;600;1;Francis;Ovanjordsanläggning;6.4;;;;Svartälven;Grythyttan;Hällefors kommun;Örebro län;59.70297;14.54443
Karlsnäs;E.ON Vattenkraft Sverige AB;2400;640;1;Kaplan;Ovanjordsanläggning;6;;;;Ronnebyån;Kallinge;Ronneby kommun;Blekinge län;56.29667;15.28800
Lenungen;Arvika Kraft AB;2400;1200;1;Francis;Ovanjordsanläggning;24;;;;Glasälven;Glava;Arvika kommun;Värmlands län;59.50816;12.37891
Hulebo;HB Hökensås Kraft;2400;650;1;;Ovanjordsanläggning;;;;;Domneån;Bankeryd;Jönköpings kommun;Jönköpings län;57.86446;14.04874
Rydboholm;Vattenfall Småskalig Kraft AB;2390;670;1;;Ovanjordsanläggning;6.8;;;;Viskan;Rydboholm;Borås kommun;Västra Götalands län;57.65188;12.88870
Ryssa Nedre;ÄSI Kraft AB;2380;600;1;Kaplan;Ovanjordsanläggning;17;4;3;;Ryssån;Mora;Mora kommun;Dalarnas län;60.91583;14.50100
Kinnaström;Vattenfall Småskalig Kraft AB;2370;625;2;Francis;Ovanjordsanläggning;4.5;;;;Viskan;Kinna;Marks kommun;Västra Götalands län;57.51165;12.68140
Born;Botåns Kraft;2300;100;;;Ovanjordsanläggning;5.5;;;;Arbogaån;Nora;Nora kommun;Örebro län;59.55847;15.03580
Dylta;Bo Lindgren i Dyltabruk AB;2300;600;1;Semikaplan;Ovanjordsanläggning;6.3;;;;Arbogaån;Täby;Örebro kommun;Örebro län;59.42886;15.21509
Hammarby;Hagby Kraft AB;2300;550;1;Kaplan;Ovanjordsanläggning;5.5;12.6;;;Arbogaån;Täby;Nora kommun;Örebro län;59.53154;15.10311
Edsbruk;Tekniska Verken i Linköping AB;2300;1030;1;;Ovanjordsanläggning;13.3;;;;Storån Västervik;Edsbruk;Västerviks kommun;Kalmar län;58.02175;16.46716
Visskvarn;Tranås Energi AB;2300;800;1;Dubbel Francis;Ovanjordsanläggning;15;8;3.3;;Bulsjöån;Ydre;Ydre kommun;Östergötlands län;57.89049;15.37764
Kullagård;Minikraft I Veddige AB;2300;450;1;Semikaplan hävertturbin;Ovanjordsanläggning;;15;;;Viskan;Veddige;Varbergs kommun;Hallands län;57.25960;12.33367
Rydal;Vattenfall Småskalig Kraft AB;2290;680;1;Kaplan;Ovanjordsanläggning;4.5;;;;Viskan;Rydal;Marks kommun;Västra Götalands län;57.55618;12.69227
Brantafors;E.ON Vattenkraft Sverige AB;2200;630;2;Tvillingfrancis;Ovanjordsanläggning;6.2;;;;Ronnebyån;Kallinge;Ronneby kommun;Blekinge län;56.26783;15.29613
Hofors;Hoåns Kraft AB;2200;800;1;;Ovanjordsanläggning;27;;;;Hoån;Hofors;Hofors kommun;Gävleborgs län;60.54959;16.29298
Lindesnäs;Gärna Vattenkraft AB;2200;400;1;;Ovanjordsanläggning;15;;;;Noret;Vansbro;Vansbro kommun;Dalarnas län;60.33117;14.52705
Ryssa Övre;Ryssa Övre;2200;700;1;Kaplan;Ovanjordsanläggning;19;4;3;;Ryssån;Mora;Mora kommun;Dalarnas län;60.91530;14.48276
Ullervad;Karlskoga Energi & Miljö AB;2200;530;1;;Ovanjordsanläggning;2.9;;;;Tidan;Mariestad;Mariestads kommun;Västra Götalands län;58.66442;13.85132
Älvsjöhyttan;Karlskoga Energi & Miljö AB;2200;660;1;Francis;Ovanjordsanläggning;;;;;Svartälven;Lesjöfors;Filipstads kommun;Värmlands län;59.99461;14.32164
Skogsryd;Öljeholms Kraft AB;2200;400;1;Semikaplan;Ovanjordsanläggning;7;6;4.7;;Ronnebyån;Skogsryd;Tingsryds kommun;Kronobergs län;56.68228;15.22046
Fäbodbäcken Övre;Åsele Kraft AB;2200;700;1;;Ovanjordsanläggning;;;;;Sängsjön;Åsele;Åsele kommun;Västerbottens län;64.20947;17.15250
Fäbodbäcken Nedre;Åsele Kraft AB;2200;520;1;;Ovanjordsanläggning;;;;;Sängsjön;Åsele;Åsele kommun;Västerbottens län;64.19101;17.14975
Gysinge;Vattenfall Dalälven AB;2200;450;2;Francis;Ovanjordsanläggning;3.5;;;;Dalälven;Gysinge;Sandvikens kommun;Gävleborgs län;60.29017;16.88477
Sikfors;Karlskoga Energi & Miljö AB;2200;720;1;;Ovanjordsanläggning;8;;;;Svartälven;Sikfors;Hällefors kommun;Örebro län;59.80696;14.57018
Råbäcken 1;Lillpite Kvarn AB;2200;450;1;;Ovanjordsanläggning;;;;;Lillpiteälv;Lillpite;Piteå kommun;Norrbottens län;65.38407;21.08405
Stocka;Orsa besparingsskog;2200;500;1;;Ovanjordsanläggning;;;;;Harmångersån;Stockvik;Nordanstigs kommun;Gävleborgs län;61.89149;17.33859
Graninge;Sydkraft Hydropower AB;2170;1200;1;Dubbelfrancis;Ovanjordsanläggning;13.4;15;3.4;63;Ledingsån;Långsele;Sollefteå kommun;Västernorrlands län;63.07064;16.93373
Melltorp;Melltorp Kraft AB;2100;435;1;Francis;Ovanjordsanläggning;15.3;4.2;2.9;;Säveån;Horla;Vårgårda kommun;Västra Götalands län;57.93561;12.71469
Billsta;Jämtkraft AB;2000;420;1;;Ovanjordsanläggning;;;;;Billstaån;Hackås;Bergs kommun;Jämtlands län;62.91562;14.51421
Brattfors;Västerbergslagens Kraft AB;2000;300;1;;Ovanjordsanläggning;24.5;;;;Storån;Ställberg;Ljusnarsbergs kommun;Örebro län;59.99235;14.92441
Handöl nedre;Jämtkraft AB;2000;500;1;Francis;Ovanjordsanläggning;36;2.4;;;Indalsälven;Östersund;Åre kommun;Jämtlands län;63.25104;12.44384
Lagmansholm;Föreningen Lagmansholms Kraftverk upa;2000;400;1;Kaplan;Ovanjordsanläggning;8.5;;;;Säveån;Vårgårda;Vårgårda kommun;Västra Götalands län;58.00843;12.70028
Lyftinge;Mälarenergi Vattenkraft AB;2000;500;1;Kaplan;Ovanjordsanläggning;5;13;10.3;;Hedströmmen;Lyftinge;Köpings kommun;Västmanlands län;59.54076;15.89104
Långforsen;Jämtkraft AB;2000;350;1;;Ovanjordsanläggning;6.1;;;;Långan;Offerdal;Krokoms kommun;Jämtlands län;63.51867;14.37639
Rällsälv;Mälarenergi Vattenkraft AB;2000;500;1;Kaplan;Ovanjordsanläggning;10.5;6;3.9;;Storån;Rällsälv;Ljusnarsbergs kommun;Örebro län;59.81374;15.04720
Vräkefors;Privatperson;2000;410;1;Kaplan;Ovanjordsanläggning;5;;;;Tidan;Moholm;Töreboda kommun;Västra Götalands län;58.55996;14.16035
Östanfors;Mälarenergi Vattenkraft AB;2000;400;2;Francis;Ovanjordsanläggning;8.3;8.5;5.3;;Hedströmmen;Uttersberg;Skinnskattebergs kommun;Västmanlands län;59.74204;15.67753
Bergqvara;Bergqvara Gård AB;2000;260;1;Francis;Ovanjordsanläggning;;;;;Mörrumsån;Växjö;Växjö kommun;Kronobergs län;56.87066;14.72983
Dammån;Jämtkraft AB;2000;850;1;Liggande med långa skåvelblad;Ovanjordsanläggning;;;;;Dammån;Hallen;Åre kommun;Jämtlands län;63.18386;13.96127
Flemminge;Mjölby-Svartådalen Energi AB;2000;1256;4;;Ovanjordsanläggning;6;;;;Svartån, Motala ström;Boxholm;Boxholms kommun;Östergötlands län;58.19728;15.03441
Gransholm;Gransholms Bruks Fastigheter AB;2000;380;1;Kaplan;Ovanjordsanläggning;3.8;;;;Mörrumsån;Gemla;Växjö kommun;Kronobergs län;56.84431;14.60237
Halla;Halla Kraft AB;2000;580;1;;Ovanjordsanläggning;;;;;Flian;Skara;Skara kommun;Västra Götalands län;58.35441;13.38317
Hammarfallet;Bångbro Kraft AB;2000;622;1;Kaplan;Ovanjordsanläggning;7;10;;;Jädraån;Sandviken;Sandvikens kommun;Gävleborgs län;60.72872;16.58881
Hoafors;Ytterhogdals Elektriska Kraft AB;2000;400;1;;Ovanjordsanläggning;;;;;Hoan;Ytterhogdal;Härjedalens kommun;Jämtlands län;62.16313;14.99178
Hörle;AB Hörle Bruk;2000;500;1;Kaplan;Ovanjordsanläggning;7;;;;Lagan;Värnamo;Värnamo kommun;Jönköpings län;57.26326;14.05676
Kolsäter;Mälarenergi Vattenkraft AB;2000;500;1;Propellerturbin;Ovanjordsanläggning;7;9;5.1;;Lillälven-Värmland;Nysäter;Säffle kommun;Värmlands län;59.31737;12.69919
Vaplan;Gällö Vattenkraft AB;2000;440;3;Francis;Ovanjordsanläggning;4.2;12;17;48;Faxån;Nälden;Krokoms kommun;Jämtlands län;63.33644;14.21212
Lundströmmen;Orsa besparingsskog;2000;490;2;;Ovanjordsanläggning;;;;;Delångersån;Hudriksvall;Hudiksvalls kommun;Gävleborgs län;61.71350;16.96544
Mjödvattsforsen;Skellefteå Kraftaktiebolag;2000;591;1;Kaplan;Ovanjordsanläggning;7.45;9;;;Bureälven;Mjödvattnet;Skellefteå kommun;Västerbottens län;64.51242;20.94119
Olofström;Volvo Personvagnar AB ;2000;466;3;Francis;Ovanjordsanläggning;19.3;;;;Holjeån;Olofström;Olofströms kommun;Blekinge län;56.27795;14.51385
Sofieholm;Mittkraft AB;2000;600;1;Francis;Ovanjordsanläggning;18;4.2;2;;Nianån;Iggesund;Hudiksvalls kommun;Gävleborgs län;61.60507;17.06409
Stångå;Torrsjö Kraft AB;2000;405;3;;Ovanjordsanläggning;;;;;Stångån;Njurunda;Sundsvalls kommun;Västernorrlands län;62.26653;17.37610
Sörfors;Stall Killigrew AB;2000;520;1;;Ovanjordsanläggning;;;;;Sörforsån;Matfors;Sundsvalls kommun;Västernorrlands län;62.29046;17.05136
Åmsele Övre;Skellefteå Kraftaktiebolag;2000;350;1;;Ovanjordsanläggning;;;;;Åman;Åmsele;Vindelns kommun;Västerbottens län;64.54909;19.35821
Ekfors nedre;Storstark AB;2000;800;1;;Ovanjordsanläggning;10;;;;Puostijoki;Ekfors;Övertorneå kommun;Norrbottens län;66.29980;23.47045
Moholm;Privatperson;1900;460;1;;Ovanjordsanläggning;4.2;;;;Tidan;Moholm;Töreboda kommun;Västra Götalands län;58.60203;14.04526
Baskarp;Habo Kraft AB;1900;430;1;;Ovanjordsanläggning;;;;;Svedån;Habo;Habo kommun;Jönköpings län;58.02426;14.14178
Skillingsfors;Arvika Kraft AB;1900;850;1;Kaplan;Ovanjordsanläggning;5.6;16.6;2.5;2.4;Kölaälven;Skillingsfors;Eda kommun;Värmlands län;59.81716;12.01562
Tidan (Lunne);Karlskoga Energi & Miljö AB;1900;410;2;;Ovanjordsanläggning;3.9;;;;Tidan;Tidan;Skövde kommun;Västra Götalands län;58.57136;14.01569
Taxviken;Vattenfall Småskalig Kraft AB;1850;280;1;;Ovanjordsanläggning;;;;;Upperudsälven;Steneby;Bengtsfors kommun;Västra Götalands län;58.93039;12.20531
Fors;Nyköping Vattenkraft AB;1830;460;3;Francis;Ovanjordsanläggning;2.5;27;24.5;;Nyköpingsån;Nyköping;Nyköpings kommun;Södermanlands län;58.75674;17.00838
Gisslefors;Forsnacken AB;1810;600;1;Pelton;Ovanjordsanläggning;67;;;;Nolån;Mölndal;Bollebygds kommun;Västra Götalands län;57.72185;12.58451
Blombacka;Privatperson;1800;460;1;;Ovanjordsanläggning;;;;;Alsterälven;Molkom;Karlstads kommun;Värmlands län;59.60630;13.80068
Bergfors;Orsa besparingsskog;1800;300;2;;Ovanjordsanläggning;;;;;Galvån;Bergfors;Bollnäs kommun;Gävleborgs län;61.41273;16.30944
Blomsterström;Ålem Energi Kraft AB;1800;500;2;Semikaplan;Ovanjordsanläggning;3.8;14;11;;Alsterån;Ålem;Mönsterås kommun;Kalmar län;56.98174;16.31787
Bosågen;Åbyggeby Landsbygdscenter ek för;1800;400;1;Ossberger;Ovanjordsanläggning;6.9;7;;;Testeboån;Ockelbo;Ockelbo kommun;Gävleborgs län;60.91825;16.61502
Brittedal;Brittedals Kraftproduktion AB;1800;440;1;;Ovanjordsanläggning;;;;;Almaån;Hässleholm;Hässleholms kommun;Skåne län;56.21696;13.90474
Kvarnfallet;Bångbro Kraft AB;1800;400;1;Kaplan;Ovanjordsanläggning;5;8.5;;;Jädraån;Järbo;Sandvikens kommun;Gävleborgs län;60.70452;16.61368
Treen;Arvika Kraft AB;1800;500;1;Francis;Ovanjordsanläggning;26;;1.5;9.5;Järperudsälven;Arvika;Arvika kommun;Värmlands län;59.88658;12.63465
Ljuså;Bodens Energi AB;1800;500;1;Francis;Ovanjordsanläggning;;;;;Ljusån;Boden;Bodens kommun;Norrbottens län;65.97597;21.60165
Storbo;Frötuna Kraftverk HB;1800;420;1;Francis;Ovanjordsanläggning;8.9;7;5.5;;Sverkestaån;Fellingsbro;Lindesbergs kommun;Örebro län;59.55300;15.44017
Valåsen;Moelven Valåsen AB;1800;831;1;;Ovanjordsanläggning;;;;;Valån;Karlskoga;Karlskoga kommun;Örebro län;59.31193;14.58449
Storamölla;Privatperson;1800;732;3;;Ovanjordsanläggning;;;;;Pinnån;Klippan;Klippans kommun;Skåne län;56.20888;13.02827
Strömma;Strömmafastigheter i Karlshamn AB;1800;400;1;;Ovanjordsanläggning;;;;;Mieån;Karlshamn;Karlshamns kommun;Blekinge län;56.19552;14.85231
Ågårdsfors;Skånska Energi Vattenkraft AB;1800;490;1;Kaplan;Ovanjordsanläggning;3.2;15;;;Nissan;Smålandsstenar;Gislaveds kommun;Jönköpings län;57.28511;13.63552
Bergsgården;Bergsgården;1738;500;1;S-turbin;Ovanjordsanläggning;13.6;4.5;2;;Faluån;Bålsta;Falu kommun;Dalarnas län;60.66044;15.55970
Guldsmedshyttan;Ters AB;1700;450;3;;Ovanjordsanläggning;45;1.2;;;Arbogaån;Lindesberg;Lindesbergs kommun;Örebro län;59.69583;15.10601
Krokfors;Mälarenergi Vattenkraft AB;1700;314;2;Francis;Ovanjordsanläggning;7.5;5.5;3.8;;Storån;Kopparberg;Ljusnarsbergs kommun;Örebro län;59.87378;14.99126
Högforsen;Torrsjö Kraft AB;1700;250;2;;Ovanjordsanläggning;;0;0;;Gilleran;Ragunda;Ragunda kommun;Jämtlands län;63.17782;16.29454
Kengis Bruk;Kengis Bruk AB;1700;315;2;;Ovanjordsanläggning;;;;;Torne älv;Pajala;Pajala kommun;Norrbottens län;67.19216;23.50899
Hättorp;Vattenfall Småskalig Kraft AB;1695;755;1;Fast propeller;Ovanjordsanläggning;23;3.9;1.3;0.2;Hättorpsån;Tjällmo;Motala kommun;Östergötlands län;58.68668;15.30221
Trollabo;Trollabo Kraft AB;1660;500;1;;Ovanjordsanläggning;15;;;;Nossan;Herrljunga;Herrljunga kommun;Västra Götalands län;58.05184;13.09703
Krokfors;Vattenfall Småskalig Kraft AB;1610;900;2;Flygt (fast pumphjul);Ovanjordsanläggning;6.1;;;;Upperudsälven;Krokfors;Bengtsfors kommun;Västra Götalands län;59.17789;12.23027
Blockenhus;Lesjöfors Kraft AB;1600;350;1;;Ovanjordsanläggning;22;;;;Svartälven;Lesjöfors;Filipstads kommun;Värmlands län;59.96743;14.19769
Gyttorp;Hagby Kraft AB;1600;500;1;Kaplan;Ovanjordsanläggning;10.5;5.8;;;Arbogaån;Täby;Nora kommun;Örebro län;59.50784;14.96847
Kallstena;Mälarenergi Vattenkraft AB;1600;300;1;Francis;Ovanjordsanläggning;4.7;12;10.5;;Hedströmmen;Köping;Köpings kommun;Västmanlands län;59.47751;15.99066
Töcksfors;Privatperson;1600;430;2;Francis;Ovanjordsanläggning;5;9;;;Upperudsälven;Töcksfors;Årjängs kommun;Värmlands län;59.50266;11.84843
Gällingen;Karlskoga Energi & Miljö AB;1600;980;1;;Underjordsanläggning;33;;;;Svartälven;Ludvika;Ludvika kommun;Dalarnas län;60.06783;14.56368
Dalasjö;Håbo Vindkraft AB;1600;230;1;;Ovanjordsanläggning;;;;;Järvsjöån;Bålsta;Vilhelminas kommun;Västerbottens län;64.55114;16.98041
Husbykvarn;Bångbro Kraft AB;1600;234;1;Francis;Ovanjordsanläggning;6;;;;Tämnareån;Tierp;Tierps kommun;Uppsala län;60.27918;17.44965
Kimmelsbygd;HB Kimmelsbygs Kraftverk;1600;425;1;;Ovanjordsanläggning;;;;;Helge å;Hallaryd;Älmhults kommun;Kronobergs län;56.49205;13.89262
Odensvi;Tekniska Verken i Linköping AB;1600;600;1;;Ovanjordsanläggning;23;;;;Botorpsströmmen;Odensvi;Västerviks kommun;Kalmar län;57.90601;16.22653
Åmott;Arvika Kraft AB;1600;350;1;Francis;Ovanjordsanläggning;21;2.4;1.9;2.9;Slorudsälven;Arvika;Arvika kommun;Värmlands län;59.70219;12.88646
Säters bruk;Säter Energi AB;1600;350;1;Francis;Ovanjordsanläggning;25;;;;Ljusterån;Säter;Säters kommun;Dalarnas län;60.34898;15.75024
Värån Övre;Fortum Generation AB;1600;290;1;Francis;Ovanjordsanläggning;35;;;;Värån;Torsby;Torsby kommun;Värmlands län;60.45461;13.27698
Älvkarhed;Privatperson;1600;440;1;Kaplan;Ovanjordsanläggning;6.5;7.5;4.6;;Voxnan;Älvkarhed;Ovanåkers kommun;Gävleborgs län;61.31711;15.95853
Oslättfors;Nilsson Kraft AB;1595;400;1;;Ovanjordsanläggning;;;;;Testeboån;Gävle;Gävle kommun;Gävleborgs län;60.77022;16.96768
Apelnäs;Vattenfall Småskalig Kraft AB;1578;330;1;Kaplan;Ovanjordsanläggning;8;5.2;;;Storån, Bollebygd;Rävlanda;Härryda kommun;Västra Götalands län;57.63184;12.49703
Faktoriholmarna;Strömfallet Tunafors AB;1500;355;1;Lawaczeck;Ovanjordsanläggning;2.1;;;;Eskilstunaån;Eskilstuna;Eskilstuna kommun;Södermanlands län;59.37469;16.51028
Faluån;Falu Energi och Vatten FEV;1500;300;1;Kaplan;Ovanjordsanläggning;6.5;;;;Faluån;Falun;Falu kommun;Dalarnas län;60.61194;15.62252
Floda;Lerum Fjärrvärme AB;1500;360;1;Kaplan;Ovanjordsanläggning;2.5;;;;Säveån;Stenkullen;Lerums kommun;Västra Götalands län;57.80931;12.36260
Hellsjön;Västerbergslagens Kraft AB;1500;1480;1;;Ovanjordsanläggning;43;;;;Kolbäcksån;Hellsjön;Smedjebackens kommun;Dalarnas län;60.04763;15.14737
Östra Born;Mälarenergi Vattenkraft AB;1500;380;1;Francis;Ovanjordsanläggning;18;2.5;1.5;;Storån;Östra Born;Ljusnarsbergs kommun;Örebro län;59.93420;14.93132
Lillfors;Karlskoga Energi & Miljö AB;1500;340;2;Francis ;Ovanjordsanläggning;;;;;Timsälven;Storfors;Storfors kommun;Värmlands län;59.53085;14.26384
Rönndalen;Envikens Elkraft ek för;1500;310;1;Vertikal Kaplan;Ovanjordsanläggning;6;7;;;Svärdsjövattendragen;Enviken;Falu kommun;Dalarnas län;60.80340;15.75560
Stamparbo;Privatperson;1500;440;2;Francis;Ovanjordsanläggning;44;1;;;Timsälven;Nordmarkshyttan;Filipstads kommun;Värmlands län;59.84860;14.11796
Strömsfors;Licato Anläggningar AB;1500;270;1;Francis;Ovanjordsanläggning;4.6;;;;Assman;Svenljunga;Svenljunga kommun;Västra Götalands län;57.46653;13.22143
Öjaforsen;Öjaforsens Kraft AB;1500;300;2;Semikaplan;Ovanjordsanläggning;4.8;9;4;;Tidan;Sandhem;Mullsjö kommun;Jönköpings län;58.01441;13.85297
Alsjö;Orsa besparingsskog;1500;400;1;Ossberger;Ovanjordsanläggning;55;0.85;;;Svågan;Hedvigsfors;Hudiksvalls kommun;Gävleborgs län;62.00591;16.45263
Bratten;Brattens elektriska förening upa;1500;230;1;;Underjordsanläggning;;;;;Öreälven;Bratten;Lycksele kommun;Västerbottens län;64.50480;18.38545
Böksholm;Växjö Kommun;1500;330;1;Kaplan;Ovanjordsanläggning;;;;;Mörrumsån;Braås;Växjö kommun;Kronobergs län;57.08625;15.00761
Bölaryd;Skånska Energi Vattenkraft AB;1500;300;2;Francis;Ovanjordsanläggning;2.9;15;;;Nissan;Villastad;Gislaveds kommun;Jönköpings län;57.12419;13.38739
Dala Järna;Gärna Vattenkraft AB;1500;400;2;;Ovanjordsanläggning;;7;1.1;49;Dalälven;Vansbro;Vansbro kommun;Dalarnas län;60.59914;14.43490
Traneberg;Fortum Generation AB;1500;900;1;;Ovanjordsanläggning;20;;;;Uvån;Hagfors;Hagfors kommun;Värmlands län;60.08421;13.80001
Gertsbäcken;Gertsbäcks Kraft AB;1500;1500;1;;Ovanjordsanläggning;;;;;Gertsbäcken;Sorsele;Sorsele kommun;Västerbottens län;65.70859;17.26920
Hidingebro;Hidingebro Kraftstation HB;1500;365;1;Francis, Propeller;Ovanjordsanläggning;;;;;Svartån;Fjugesta;Lekebergs kommun;Örebro län;59.21754;14.89877
Högbergsfors;Mälarenergi Vattenkraft AB;1500;490;2;Francis;Ovanjordsanläggning;26;2.4;1.2;;Storån;Högfors;Ljusnarsbergs kommun;Örebro län;59.96711;14.97597
Nykvarn Stångån;Tekniska Verken i Linköping AB;1500;320;1;Full Kaplan;Ovanjordsanläggning;2.8;16;14;;Stångån, Motala Ström;Linköping;Linköpings kommun;Östergötlands län;58.41995;15.63218
Ohs Bruk;GW Kraft AB;1500;540;1;;Ovanjordsanläggning;5;;;;Skålån;Värnamo;Värnamo kommun;Jönköpings län;57.19323;14.33512
Storebro;Skånska Energi AB;1500;420;1;Kaplan;Ovanjordsanläggning;7;;;;Stångån, Motala Ström;Storebro;Vimmerby kommun;Kalmar län;57.58562;15.83813
Storlugnet;Hamra Kraft AB;1500;208;1;;Ovanjordsanläggning;;;;;Voxnan;Hamra;Ljusdals kommun;Gävleborgs län;61.71043;15.00186
Strömsborg;Åbyggeby Landsbygdscenter ek för;1500;280;1;Ossberger;Ovanjordsanläggning;5.6;6.3;;;Testeboån;Ockelbo;Ockelbo kommun;Gävleborgs län;60.91511;16.64389
Sågfallet;Bångbro Kraft AB;1500;400;1;Kaplan;Ovanjordsanläggning;5;10;;;Jädraån;Sandviken;Sandvikens kommun;Gävleborgs län;60.71733;16.60969
Sätra Övre;Sätra Bruk AB;1500;420;1;;Ovanjordsanläggning;;;;;Edsån;Undenäs;Karlsborgs kommun;Västra Götalands län;58.69091;14.35045
Ekfors övre;Storstark AB;1500;750;1;;Ovanjordsanläggning;10;;;;Puostijoki;Ekfors;Övertorneå kommun;Norrbottens län;66.30522;23.44527
Bodån;Bodens Energi AB;1450;350;1;Semi Kaplan;Ovanjordsanläggning;7;;;;Bodån;Boden;Bodens kommun;Norrbottens län;65.81064;21.67585
